NAME_LOC,NAME_EN,TYPE,TYPECODE,SUBTYPE,LEVEL,LEVELCODE,POSTCODE,ADDRESS_LOC,ADDRESS_EN,CITY_LOC,CITY_EN,FOCAL_PERSON_LOC,FOCAL_PERSON_EN,TELEPHONE,EMAIL,WEBSITE,SOURCE_EN,SOURCE_LOC,LATITUDE,LONGITUDE,ISO3,COUNTRY,NATIONAL_SOCIETY,GOLOCALUNITID,NSLOCALUNITID,DATEOFUPDATE,VALIDATED,PUBLICVIEW
U.S. Virgin Islands,U.S. Virgin Islands,Administrative,1,,Ward,3,,6035 Castle Coakley ,6035 Castle Coakley ,"Christiansted, VI,  00820","Christiansted, VI,  00820",,,340-778-5104,,,American Red Cross,American Red Cross,17.7224321,-64.7455403,USA,United States,American Red Cross,,,29-Aug-23,Yes,Yes
Greater Miami and the Keys Chapter (Regional Headquarters),Greater Miami and the Keys Chapter (Regional Headquarters),Administrative,1,Chapter,District,2,,335 SW 27th Avenue ,335 SW 27th Avenue ,"Miami, FL 33135","Miami, FL 33135",,,(305) 644-1200,,,American Red Cross,American Red Cross,25.7689598,-80.2386544,USA,United States,American Red Cross,,,29-Aug-23,Yes,Yes
Broward County Chapter,Broward County Chapter,Administrative,1,Chapter,District,2,,"3696 North Federal Highway, Suite 101","3696 North Federal Highway, Suite 101","Fort Lauderdale, FL 33308","Fort Lauderdale, FL 33308",,,(954) 797-3800,,,American Red Cross,American Red Cross,26.1727256,-80.1189392,USA,United States,American Red Cross,,,29-Aug-23,Yes,Yes
South Texas,South Texas,Administrative,1,,Ward,3,,6914 W. Expressway 83 ,6914 W. Expressway 83 ,"Harlingen, TX 78552","Harlingen, TX 78552",,,(956) 423-0523,,,American Red Cross,American Red Cross,26.1878597,-97.7620859,USA,United States,American Red Cross,,,29-Aug-23,Yes,Yes
Florida Gulf Coast to Heartland Chapter,Florida Gulf Coast to Heartland Chapter,Administrative,1,Chapter,District,2,,"7051 Cypress Terrace, #110 ","7051 Cypress Terrace, #110 ","Fort Myers, FL 33907","Fort Myers, FL 33907",,,(239) 278-3401,,,American Red Cross,American Red Cross,26.5416419,-81.8724947,USA,United States,American Red Cross,,,29-Aug-23,Yes,Yes
Palm Beach and Treasure Coast Chapter,Palm Beach and Treasure Coast Chapter,Administrative,1,Chapter,District,2,,1250 Northpoint Parkway ,1250 Northpoint Parkway ,"West Palm Beach, FL 33407","West Palm Beach, FL 33407",,,(561) 833-7711,,,American Red Cross,American Red Cross,26.7630582,-80.0974115,USA,United States,American Red Cross,,,29-Aug-23,Yes,Yes
Southwest Florida,Southwest Florida,Administrative,1,,Ward,3,,2001 Cantu Ct. ,2001 Cantu Ct. ,"Sarasota, FL 34232","Sarasota, FL 34232",,,941-379-9300,,,American Red Cross,American Red Cross,27.3189029,-82.4488024,USA,United States,American Red Cross,,,29-Aug-23,Yes,Yes
Coastal Bend,Coastal Bend,Administrative,1,,Ward,3,,"4639 Corona Drive, Suite 101 ","4639 Corona Drive, Suite 101 ","Corpus Christi, TX 78411","Corpus Christi, TX 78411",,,(361) 887-9991,,,American Red Cross,American Red Cross,27.7128894,-97.3884998,USA,United States,American Red Cross,,,29-Aug-23,Yes,Yes
Tampa Bay (Regional Headquarters),Tampa Bay (Regional Headquarters),Administrative,1,Regional Headquarters,Provincial,1,,3310 W. Main St ,3310 W. Main St ,"Tampa, FL 33607","Tampa, FL 33607",,,813-348-4820,,,American Red Cross,American Red Cross,27.9568988,-82.4984221,USA,United States,American Red Cross,,,29-Aug-23,Yes,Yes
Mid-Florida,Mid-Florida,Administrative,1,,Ward,3,,"147 Avenue A, NW ","147 Avenue A, NW ","Winter Haven, FL 33881","Winter Haven, FL 33881",,,863-294-5941,,,American Red Cross,American Red Cross,28.0232914,-81.7275336,USA,United States,American Red Cross,,,29-Aug-23,Yes,Yes
Florida's Space Coast,Florida's Space Coast,Administrative,1,,Ward,3,,"8245 Devereaux Drive, Suite 101 ","8245 Devereaux Drive, Suite 101 ","Viera, FL 32940","Viera, FL 32940",,,321-890-1002,,,American Red Cross,American Red Cross,28.2322058,-80.7149014,USA,United States,American Red Cross,,,29-Aug-23,Yes,Yes
Greater Orlando,Greater Orlando,Administrative,1,,Ward,3,,5 N. Bumby Ave. ,5 N. Bumby Ave. ,"Orlando, FL 32803","Orlando, FL 32803",,,407-894-4141,,,American Red Cross,American Red Cross,28.5426124,-81.3515002,USA,United States,American Red Cross,,,29-Aug-23,Yes,Yes
Greater San Antonio ,Greater San Antonio ,Administrative,1,,Ward,3,,3642 East Houston Street ,3642 East Houston Street ,"San Antonio, TX 78219","San Antonio, TX 78219",,,(210) 224-5151,,,American Red Cross,American Red Cross,29.4243973,-98.4272524,USA,United States,American Red Cross,,,29-Aug-23,Yes,Yes
Texas Coastal Plains Chapter,Texas Coastal Plains Chapter,Administrative,1,Chapter,District,2,,2610 B F Terry Blvd. ,2610 B F Terry Blvd. ,"Rosenberg, TX 77471","Rosenberg, TX 77471",,,(281) 342-9480,,,American Red Cross,American Red Cross,29.5458991,-95.7714177,USA,United States,American Red Cross,,,29-Aug-23,Yes,Yes
Greater Houston,Greater Houston,Administrative,1,,Ward,3,,2700 Southwest Freeway ,2700 Southwest Freeway ,"Houston, TX 77098","Houston, TX 77098",,,(713) 526-8300,,,American Red Cross,American Red Cross,29.731586,-95.4203861,USA,United States,American Red Cross,,,29-Aug-23,Yes,Yes
Southeast Louisiana - Greater Orleans Area (Regional Headquarters),Southeast Louisiana - Greater Orleans Area (Regional Headquarters),Administrative,1,Regional Headquarters,Provincial,1,,2626 Canal St. ,2626 Canal St. ,"New Orleans, LA 70119","New Orleans, LA 70119",,,(504) 620-3150,,,American Red Cross,American Red Cross,29.9645389,-90.0867242,USA,United States,American Red Cross,,,29-Aug-23,Yes,Yes
Hill Country,Hill Country,Administrative,1,,Ward,3,,333 Earl Garrett Street ,333 Earl Garrett Street ,"Kerrville, TX 78028","Kerrville, TX 78028",,,(830) 257-4677,,,American Red Cross,American Red Cross,30.0471821,-99.138308,USA,United States,American Red Cross,,,29-Aug-23,Yes,Yes
Southeast and Deep East Texas,Southeast and Deep East Texas,Administrative,1,,Ward,3,,3901 IH 10 East ,3901 IH 10 East ,"Orange, TX 77630","Orange, TX 77630",,,(409) 883-2322,,,American Red Cross,American Red Cross,30.119846,-93.7832371,USA,United States,American Red Cross,,,29-Aug-23,Yes,Yes
Central Texas,Central Texas,Administrative,1,,Ward,3,,2218 Pershing Drive ,2218 Pershing Drive ,"Austin, TX 78723","Austin, TX 78723",,,(512) 928-4271,,,American Red Cross,American Red Cross,30.2872472,-97.6985763,USA,United States,American Red Cross,,,29-Aug-23,Yes,Yes
Northeast FL Chapter  - Jacksonville Office (Regional Headquarters),Northeast FL Chapter  - Jacksonville Office (Regional Headquarters),Administrative,1,Chapter,District,2,,751 Riverside Avenue ,751 Riverside Avenue ,"Jacksonville, FL 32204","Jacksonville, FL 32204",,,1-904-358-8091,,,American Red Cross,American Red Cross,30.3159802,-81.676184,USA,United States,American Red Cross,,,29-Aug-23,Yes,Yes
Southeast Mississippi,Southeast Mississippi,Administrative,1,,Ward,3,, 612 E. Pass Road , 612 E. Pass Road ,"Gulfport, MS 39507","Gulfport, MS 39507",,,(228) 896-4511,,,American Red Cross,American Red Cross,30.3957408,-89.0395547,USA,United States,American Red Cross,,,29-Aug-23,Yes,Yes
Louisiana Capital Area,Louisiana Capital Area,Administrative,1,,Ward,3,,4655 Sherwood Common Blvd. ,4655 Sherwood Common Blvd. ,"Baton Rouge, LA 70816","Baton Rouge, LA 70816",,,(225) 291-4533,,,American Red Cross,American Red Cross,30.4069461,-91.056296,USA,United States,American Red Cross,,,29-Aug-23,Yes,Yes
Capital Area Office,Capital Area Office,Administrative,1,Office,Ward,3,,1115 Easterwood Drive ,1115 Easterwood Drive ,"Tallahassee, FL 32311","Tallahassee, FL 32311",,,1-850-878-6080,,,American Red Cross,American Red Cross,30.4502606,-84.2200577,USA,United States,American Red Cross,,,29-Aug-23,Yes,Yes
Northwest Florida Office,Northwest Florida Office,Administrative,1,Office,Ward,3,,9111 Sturdevant Street ,9111 Sturdevant Street ,"Pensacola, FL 32514","Pensacola, FL 32514",,,1-850-432-7601,,,American Red Cross,American Red Cross,30.5282239,-87.1992617,USA,United States,American Red Cross,,,29-Aug-23,Yes,Yes
South Alabama Chapter,South Alabama Chapter,Administrative,1,Chapter,District,2,,35 North Sage Avenue ,35 North Sage Avenue ,"Mobile, AL 36607","Mobile, AL 36607",,,251-544-6100,,,American Red Cross,American Red Cross,30.6918227,-88.1153514,USA,United States,American Red Cross,,,29-Aug-23,Yes,Yes
South Central Georgia,South Central Georgia,Administrative,1,,Ward,3,,385 Connell Rd. ,385 Connell Rd. ,"Valdosta, GA 31602","Valdosta, GA 31602",,,229-242-7404,,,American Red Cross,American Red Cross,30.8729622,-83.2824912,USA,United States,American Red Cross,,,29-Aug-23,Yes,Yes
Heart of Texas,Heart of Texas,Administrative,1,,Ward,3,,"6801 Sanger Ave, Ste. 228A ","6801 Sanger Ave, Ste. 228A ","Waco, TX 76710","Waco, TX 76710",,,(254) 523-4985,,,American Red Cross,American Red Cross,31.5201369,-97.2007098,USA,United States,American Red Cross,,,29-Aug-23,Yes,Yes
West Texas,West Texas,Administrative,1,,Ward,3,,3620 Admiral Street ,3620 Admiral Street ,"El Paso, TX 79925","El Paso, TX 79925",,,(915) 592-0208,,,American Red Cross,American Red Cross,31.794709,-106.3637179,USA,United States,American Red Cross,,,29-Aug-23,Yes,Yes
Fort Stewart - American Red Cross,Fort Stewart - American Red Cross,Administrative,1,,Ward,3,,"Building 253, Suite 2074 Pony Soldier Ave.  ","Building 253, Suite 2074 Pony Soldier Ave.  ","Fort Stewart, GA 31315","Fort Stewart, GA 31315",,,912-767-2197,,,American Red Cross,American Red Cross,31.8635091,-81.6030315,USA,United States,American Red Cross,,,29-Aug-23,Yes,Yes
Permian Basin,Permian Basin,Administrative,1,,Ward,3,,9601 Wright Drive P.O. Box 60310 ,9601 Wright Drive P.O. Box 60310 ,"Midland, TX 79711","Midland, TX 79711",,,(432) 563-2267,,,American Red Cross,American Red Cross,31.9427155,-102.2109139,USA,United States,American Red Cross,,,29-Aug-23,Yes,Yes
Savannah Red Cross Blood and Platelet Donation Center,Savannah Red Cross Blood and Platelet Donation Center,Health Care,2,Blood Centre,,,,25 Tibet Ave ,25 Tibet Ave ,"Savannah, GA 31406","Savannah, GA 31406",,,1-800-RED CROSS,,,American Red Cross,American Red Cross,31.9878785,-81.1302552,USA,United States,American Red Cross,,,29-Aug-23,Yes,Yes
Southeast Georgia,Southeast Georgia,Administrative,1,,Ward,3,,41 Park of Commerce Way Building #200,41 Park of Commerce Way Building #200,"Savannah, GA 31405","Savannah, GA 31405",,,912-651-5300,,,American Red Cross,American Red Cross,32.0654945,-81.1654968,USA,United States,American Red Cross,,,29-Aug-23,Yes,Yes
Southern Arizona Chapter,Southern Arizona Chapter,Administrative,1,Chapter,District,2,,3470 E. Universal Way ,3470 E. Universal Way ,"Tucson, AZ 85756","Tucson, AZ 85756",,,(520) 318-6740,,,American Red Cross,American Red Cross,32.1315976,-110.9184254,USA,United States,American Red Cross,,,29-Aug-23,Yes,Yes
"Tucson Red Cross Blood, Platelet and Plasma Donation Center ","Tucson Red Cross Blood, Platelet and Plasma Donation Center ",Health Care,2,Blood Centre,,,,7139 E. Broadway Blvd ,7139 E. Broadway Blvd ,"Tucson, AZ 85710","Tucson, AZ 85710",,,1-800-RED CROSS,,,American Red Cross,American Red Cross,32.2226418,-110.8393667,USA,United States,American Red Cross,,,29-Aug-23,Yes,Yes
East Texas Chapter,East Texas Chapter,Administrative,1,Chapter,District,2,,320 E. Rieck Rd. ,320 E. Rieck Rd. ,"Tyler, TX 75703 ","Tyler, TX 75703 ",,,(903) 581-7981,,,American Red Cross,American Red Cross,32.2893782,-95.2990859,USA,United States,American Red Cross,,,29-Aug-23,Yes,Yes
Southwest Mississippi,Southwest Mississippi,Administrative,1,,Ward,3,, 9 River Bend Place , 9 River Bend Place ,"Flowood, MS 39232","Flowood, MS 39232",,,601-353-5442,,,American Red Cross,American Red Cross,32.3279608,-90.1260282,USA,United States,American Red Cross,,,29-Aug-23,Yes,Yes
"Tucson Red Cross Blood, Platelet and Plasma Donation Center - Foothills","Tucson Red Cross Blood, Platelet and Plasma Donation Center - Foothills",Health Care,2,Blood Centre,,,,7354 N La Cholla Blvd ,7354 N La Cholla Blvd ,"Tucson, AZ 85741","Tucson, AZ 85741",,,1-800-RED CROSS,,,American Red Cross,American Red Cross,32.3408449,-111.01209,USA,United States,American Red Cross,,,29-Aug-23,Yes,Yes
Central East Alabama Chapter,Central East Alabama Chapter,Administrative,1,Chapter,District,2,,5015 Woods Crossing ,5015 Woods Crossing ," Montgomery, AL 36106"," Montgomery, AL 36106",,,1-334-260-3980 ,,,American Red Cross,American Red Cross,32.3616824,-86.2208125,USA,United States,American Red Cross,,,29-Aug-23,Yes,Yes
Montgomery Red Cross Blood Donation Center,Montgomery Red Cross Blood Donation Center,Health Care,2,Blood Centre,,,,5015 Woods Crossing ,5015 Woods Crossing ,"Montgomery, AL 36106","Montgomery, AL 36106",,,1-800-RED CROSS,,,American Red Cross,American Red Cross,32.3616824,-86.2208125,USA,United States,American Red Cross,,,29-Aug-23,Yes,Yes
Fort Benning - American Red Cross,Fort Benning - American Red Cross,Administrative,1,,Ward,3,,"7200 Anderson Street, Bldg. 482 ","7200 Anderson Street, Bldg. 482 ","Fort Benning, GA 31905","Fort Benning, GA 31905",,,706-545-5194,,,American Red Cross,American Red Cross,32.3619719,-84.9767403,USA,United States,American Red Cross,,,29-Aug-23,Yes,Yes
North Louisiana Chapter,North Louisiana Chapter,Administrative,1,Chapter,District,2,,805 Brook Hollow Dr. ,805 Brook Hollow Dr. ,"Shreveport, LA 71105","Shreveport, LA 71105",,,(318) 865-9545,,,American Red Cross,American Red Cross,32.418277,-93.7261352,USA,United States,American Red Cross,,,29-Aug-23,Yes,Yes
Southwest Georgia,Southwest Georgia,Administrative,1,,Ward,3,,6501 Veterans Parkway Suite 3B,6501 Veterans Parkway Suite 3B,"Columbus, GA 31909","Columbus, GA 31909",,,706-323-5614,,,American Red Cross,American Red Cross,32.5399392,-84.9552149,USA,United States,American Red Cross,,,29-Aug-23,Yes,Yes
Columbus Red Cross Blood and Platelet Donation Center - GA,Columbus Red Cross Blood and Platelet Donation Center - GA,Health Care,2,Blood Centre,,,,7490 Veterans Prkwy ,7490 Veterans Prkwy ,"Columbus, GA 31909","Columbus, GA 31909",,,1-800-RED CROSS,,,American Red Cross,American Red Cross,32.5559997,-84.9446445,USA,United States,American Red Cross,,,29-Aug-23,Yes,Yes
DFW Metro West Chapter,DFW Metro West Chapter,Administrative,1,Chapter,District,2,,6000 Western Place ,6000 Western Place ,"Fort Worth, TX 76107","Fort Worth, TX 76107",,,(817) 335-9137,,,American Red Cross,American Red Cross,32.7358016,-97.4162519,USA,United States,American Red Cross,,,29-Aug-23,Yes,Yes
Imperial County,Imperial County,Administrative,1,,Ward,3,,312 South 8th St. ,312 South 8th St. ,"El Centro, CA 92243","El Centro, CA 92243",,,(760) 352-4541,,,American Red Cross,American Red Cross,32.7903404,-115.562264,USA,United States,American Red Cross,,,29-Aug-23,Yes,Yes
Charleston Red Cross Blood and Platelet Donation Center - West Ashley,Charleston Red Cross Blood and Platelet Donation Center - West Ashley,Health Care,2,Blood Centre,,,,2000 Sam Rittenberg Blvd ,2000 Sam Rittenberg Blvd ,"Charleston, SC 29407","Charleston, SC 29407",,,1-800-RED CROSS,,,American Red Cross,American Red Cross,32.7948359,-80.0289682,USA,United States,American Red Cross,,,29-Aug-23,Yes,Yes
Mt. Pleasant Red Cross Blood and Platelet Donation Center,Mt. Pleasant Red Cross Blood and Platelet Donation Center,Health Care,2,Blood Centre,,,,920 Houston Northcutt Blvd ,920 Houston Northcutt Blvd ,"Mount Pleasant, SC 29464","Mount Pleasant, SC 29464",,,1-800-RED CROSS,,,American Red Cross,American Red Cross,32.8020233,-79.8917187,USA,United States,American Red Cross,,,29-Aug-23,Yes,Yes
DFW Metro East Chapter (Regional Headquarters),DFW Metro East Chapter (Regional Headquarters),Administrative,1,Chapter,District,2,,2055 Kendall Drive ,2055 Kendall Drive ,"Dallas, TX 75235","Dallas, TX 75235",,,(214) 678-4800,,,American Red Cross,American Red Cross,32.809067,-96.8319676,USA,United States,American Red Cross,,,29-Aug-23,Yes,Yes
San Diego Region HQ,San Diego Region HQ,Administrative,1,Regional Headquarters,Provincial,1,,3950 Calle Fortunada ,3950 Calle Fortunada ,"San Diego, CA 92123","San Diego, CA 92123",,,(858) 309-1200,,,American Red Cross,American Red Cross,32.813567,-117.1234589,USA,United States,American Red Cross,,,29-Aug-23,Yes,Yes
"Kearney Mesa Red Cross Blood, Platelet and Plasma Donation Center","Kearney Mesa Red Cross Blood, Platelet and Plasma Donation Center",Health Care,2,Blood Centre,,,,"4229 Ponderosa Ave, Suite C ","4229 Ponderosa Ave, Suite C ","San Diego, CA 92123","San Diego, CA 92123",,,1-800-RED CROSS,,,American Red Cross,American Red Cross,32.8168445,-117.131209,USA,United States,American Red Cross,,,29-Aug-23,Yes,Yes
Lowcountry SC Chapter,Lowcountry SC Chapter,Administrative,1,Chapter,District,2,,2424-A City Hall Lane ,2424-A City Hall Lane ,"North Charleston, SC 29406","North Charleston, SC 29406",,,1-843-764-2323,,,American Red Cross,American Red Cross,32.8754473,-80.0117521,USA,United States,American Red Cross,,,29-Aug-23,Yes,Yes
Irving Red Cross Blood and Platelet Donation Center,Irving Red Cross Blood and Platelet Donation Center,Health Care,2,Blood Centre,,,,2511 West Lyndon B. Johnson Freeway ,2511 West Lyndon B. Johnson Freeway ,"Irving, TX 75063","Irving, TX 75063",,,1-800-RED CROSS,,,American Red Cross,American Red Cross,32.9216139,-96.980605,USA,United States,American Red Cross,,,29-Aug-23,Yes,Yes
Plano Red Cross Blood and Platelet Donation Center,Plano Red Cross Blood and Platelet Donation Center,Health Care,2,Blood Centre,,,,741 N US-Central Expy Suite 1000 ,741 N US-Central Expy Suite 1000 ,"Plano, TX  75075","Plano, TX  75075",,,1-800-RED CROSS,,,American Red Cross,American Red Cross,33.0196617,-96.7089035,USA,United States,American Red Cross,,,29-Aug-23,Yes,Yes
Central Midwest Georgia,Central Midwest Georgia,Administrative,1,,Ward,3,,"900 Dallis Street, Suite C ","900 Dallis Street, Suite C ","LaGrange, GA 30240","LaGrange, GA 30240",,,706-884-5818,,,American Red Cross,American Red Cross,33.027046,-85.047399,USA,United States,American Red Cross,,,29-Aug-23,Yes,Yes
Central-West Alabama Chapter,Central-West Alabama Chapter,Administrative,1,Chapter,District,2,,"2130 Paul W. Bryant Drive, Suite B ","2130 Paul W. Bryant Drive, Suite B ","Tuscaloosa , AL 35401 ","Tuscaloosa , AL 35401 ",,,1-205-758-3608 ,,,American Red Cross,American Red Cross,33.2065636,-87.5633499,USA,United States,American Red Cross,,,29-Aug-23,Yes,Yes
Gilbert Red Cross Blood and Platelet Donation Center,Gilbert Red Cross Blood and Platelet Donation Center,Health Care,2,Blood Centre,,,,120 S. Val Vista Drive ,120 S. Val Vista Drive ,"Gilbert, AZ 85296","Gilbert, AZ 85296",,,1-800-RED CROSS,,,American Red Cross,American Red Cross,33.3479239,-111.7562959,USA,United States,American Red Cross,,,29-Aug-23,Yes,Yes
Birmingham Red Cross Blood and Platelet Donation Center - Caldwell Trace,Birmingham Red Cross Blood and Platelet Donation Center - Caldwell Trace,Health Care,2,Blood Centre,,,,700 Caldwell Trace ,700 Caldwell Trace ,"Birmingham, AL 35242","Birmingham, AL 35242",,,1-800-RED CROSS,,,American Red Cross,American Red Cross,33.3805276,-86.7385841,USA,United States,American Red Cross,,,29-Aug-23,Yes,Yes
Eisenhower Army Medical Center - American Red Cross,Eisenhower Army Medical Center - American Red Cross,Administrative,1,,Ward,3,,Bldg 300 3D-09  ,Bldg 300 3D-09  ,"Fort Gordon, GA 30905","Fort Gordon, GA 30905",,,706-787-6311,,,American Red Cross,American Red Cross,33.4243373,-82.1387233,USA,United States,American Red Cross,,,29-Aug-23,Yes,Yes
Northeast Texas Chapter,Northeast Texas Chapter,Administrative,1,Chapter,District,2,,821 Spruce Street ,821 Spruce Street ,"Texarkana, TX 75501","Texarkana, TX 75501",,,(903) 793-5602,,,American Red Cross,American Red Cross,33.4262368,-94.0503932,USA,United States,American Red Cross,,,29-Aug-23,Yes,Yes
East Central Georgia,East Central Georgia,Administrative,1,,Ward,3,,1322 Ellis Street ,1322 Ellis Street ,"Augusta, GA 30901","Augusta, GA 30901",,,706-724-8481,,,American Red Cross,American Red Cross,33.4775991,-81.9766593,USA,United States,American Red Cross,,,29-Aug-23,Yes,Yes
Fayetteville Red Cross Blood and Platelet Donation Center,Fayetteville Red Cross Blood and Platelet Donation Center,Health Care,2,Blood Centre,,,,100 Promenade Parkway ,100 Promenade Parkway ,"Fayetteville, GA 30214","Fayetteville, GA 30214",,,1-800-RED-CROSS,,,American Red Cross,American Red Cross,33.4829471,-84.4342267,USA,United States,American Red Cross,,,29-Aug-23,Yes,Yes
Birmingham Red Cross Blood Donation Center - UAB Medical,Birmingham Red Cross Blood Donation Center - UAB Medical,Health Care,2,Blood Centre,,,,1802 6th Ave S ,1802 6th Ave S ,"Birmingham, AL 35233","Birmingham, AL 35233",,,1-800-RED CROSS,,,American Red Cross,American Red Cross,33.5066963,-86.8034463,USA,United States,American Red Cross,,,29-Aug-23,Yes,Yes
Central and Northern Arizona,Central and Northern Arizona,Administrative,1,,Ward,3,,"4747 North 22nd Street, Suite 100 ","4747 North 22nd Street, Suite 100 ","Phoenix, AZ 85016","Phoenix, AZ 85016",,,(602) 336-6660,,,American Red Cross,American Red Cross,33.5073448,-112.0339666,USA,United States,American Red Cross,,,29-Aug-23,Yes,Yes
Mid-Alabama Chapter (Regional Headquarters),Mid-Alabama Chapter (Regional Headquarters),Administrative,1,Chapter,District,2,,114 22nd St. ,114 22nd St. ,"Birmingham, AL 35223","Birmingham, AL 35223",,,205-795-8700,,,American Red Cross,American Red Cross,33.5124637,-86.8010136,USA,United States,American Red Cross,,,29-Aug-23,Yes,Yes
Glendale Red Cross Blood and Platelet Donation Center,Glendale Red Cross Blood and Platelet Donation Center,Health Care,2,Blood Centre,,,,9950 W Glendale Avenue Suite A ,9950 W Glendale Avenue Suite A ,"Glendale, AZ 85307","Glendale, AZ 85307",,,1-800-RED CROSS,,,American Red Cross,American Red Cross,33.537571,-112.273782,USA,United States,American Red Cross,,,29-Aug-23,Yes,Yes
Conyers Red Cross Blood and Platelet Donation Center,Conyers Red Cross Blood and Platelet Donation Center,Health Care,2,Blood Centre,,,,"2445 Salem Road SE, Suite 206F/207G ","2445 Salem Road SE, Suite 206F/207G ","Conyers, GA 30013","Conyers, GA 30013",,,1-800-RED CROSS,,,American Red Cross,American Red Cross,33.6235123,-83.9783119,USA,United States,American Red Cross,,,29-Aug-23,Yes,Yes
"Laguna Hills Red Cross Blood, Platelet and Plasma Donation Center","Laguna Hills Red Cross Blood, Platelet and Plasma Donation Center",Health Care,2,Blood Centre,,,,22971 Mill Creek Dr ,22971 Mill Creek Dr ,"Laguna Hills, CA 92653","Laguna Hills, CA 92653",,,1-800-RED CROSS,,,American Red Cross,American Red Cross,33.6286923,-117.7353672,USA,United States,American Red Cross,,,29-Aug-23,Yes,Yes
Eastern SC Chapter Headquarters,Eastern SC Chapter Headquarters,Administrative,1,Chapter,District,2,,3531 Pampas Drive ,3531 Pampas Drive ,"Myrtle Beach, SC 29577","Myrtle Beach, SC 29577",,,1-843-477-0020,,,American Red Cross,American Red Cross,33.6601082,-78.9392986,USA,United States,American Red Cross,,,29-Aug-23,Yes,Yes
"Fountain Valley Red Cross Blood, Platelet and Plasma Donation Center","Fountain Valley Red Cross Blood, Platelet and Plasma Donation Center",Health Care,2,Blood Centre,,,,17800 Newhope St ,17800 Newhope St ,"Fountain Valley, CA 92708","Fountain Valley, CA 92708",,,1-800-RED CROSS,,,American Red Cross,American Red Cross,33.7049427,-117.9328636,USA,United States,American Red Cross,,,29-Aug-23,Yes,Yes
Palm Desert/Coachella Valley,Palm Desert/Coachella Valley,Administrative,1,,Ward,3,,72559 CA-Highway 111 ,72559 CA-Highway 111 ,"Palm Desert, CA 92260","Palm Desert, CA 92260",,,888-831-0031,,,American Red Cross,American Red Cross,33.7239825,-116.4006229,USA,United States,American Red Cross,,,29-Aug-23,Yes,Yes
Orange County,Orange County,Administrative,1,,Ward,3,,600 Parkcenter Dr. ,600 Parkcenter Dr. ,"Santa Ana, CA 92705","Santa Ana, CA 92705",,,(714) 481-5300,,,American Red Cross,American Red Cross,33.7502243,-117.8365721,USA,United States,American Red Cross,,,29-Aug-23,Yes,Yes
"Santa Ana Red Cross Blood, Platelet and Plasma Donation Center","Santa Ana Red Cross Blood, Platelet and Plasma Donation Center",Health Care,2,Blood Centre,,,,600 Park Center Drive ,600 Park Center Drive ,"Santa Ana, CA 92705","Santa Ana, CA 92705",,,1-800-RED CROSS,,,American Red Cross,American Red Cross,33.7502243,-117.8365721,USA,United States,American Red Cross,,,29-Aug-23,Yes,Yes
Myrtle Beach Red Cross Blood and Platelet Donation Center,Myrtle Beach Red Cross Blood and Platelet Donation Center,Health Care,2,Blood Centre,,,,"3681 Renee Drive, Unit #4 ","3681 Renee Drive, Unit #4 ","Myrtle Beach, SC 29579","Myrtle Beach, SC 29579",,,1-800-RED CROSS,,,American Red Cross,American Red Cross,33.7606983,-78.9677439,USA,United States,American Red Cross,,,29-Aug-23,Yes,Yes
American Red Cross serving Greater Long Beach and South Bay,American Red Cross serving Greater Long Beach and South Bay,Administrative,1,,Ward,3,,3150 East 29th Street ,3150 East 29th Street ,"Long Beach, CA 90806","Long Beach, CA 90806",,,(562) 595-6341,,,American Red Cross,American Red Cross,33.8068121,-118.1541956,USA,United States,American Red Cross,,,29-Aug-23,Yes,Yes
"Long Beach Red Cross Blood, Platelet and Plasma Donation Center","Long Beach Red Cross Blood, Platelet and Plasma Donation Center",Health Care,2,Blood Centre,,,,3150 E 29th St ,3150 E 29th St ,"Long Beach, CA 90806","Long Beach, CA 90806",,,1-800-RED CROSS,,,American Red Cross,American Red Cross,33.8068121,-118.1541956,USA,United States,American Red Cross,,,29-Aug-23,Yes,Yes
Greater Atlanta (Georgia Regional Headquarters),Greater Atlanta (Georgia Regional Headquarters),Administrative,1,Regional Headquarters,Provincial,1,,1955 Monroe Drive ,1955 Monroe Drive ,"  Atlanta, GA 30324","  Atlanta, GA 30324",,,404-876-3302,,,American Red Cross,American Red Cross,33.8078543,-84.3741286,USA,United States,American Red Cross,,,29-Aug-23,Yes,Yes
"Atlanta Red Cross Blood, Platelet and Plasma Donation Center - Midtown","Atlanta Red Cross Blood, Platelet and Plasma Donation Center - Midtown",Health Care,2,Blood Centre,,,,1955 Monroe Drive ,1955 Monroe Drive ,"Atlanta, GA 30324","Atlanta, GA 30324",,,1-800-RED CROSS,,,American Red Cross,American Red Cross,33.8078543,-84.3741286,USA,United States,American Red Cross,,,29-Aug-23,Yes,Yes
"Torrance Red Cross Blood, Platelet and Plasma Donation Center","Torrance Red Cross Blood, Platelet and Plasma Donation Center",Health Care,2,Blood Centre,,,,2814 Sepulveda Blvd ,2814 Sepulveda Blvd ,"Torrance, CA 90505","Torrance, CA 90505",,,1-800-RED CROSS,,,American Red Cross,American Red Cross,33.8225865,-118.3355103,USA,United States,American Red Cross,,,29-Aug-23,Yes,Yes
"Fullerton Red Cross Blood, Platelet and Plasma Donation Centers","Fullerton Red Cross Blood, Platelet and Plasma Donation Centers",Health Care,2,Blood Centre,,,,1379 S Harbor Blvd ,1379 S Harbor Blvd ,"Fullerton, CA 92832","Fullerton, CA 92832",,,1-800-RED CROSS,,,American Red Cross,American Red Cross,33.8576747,-117.9248544,USA,United States,American Red Cross,,,29-Aug-23,Yes,Yes
Texas Big Country Chapter,Texas Big Country Chapter,Administrative,1,Chapter,District,2,,1809 5th St ,1809 5th St ,"Wichita Falls, TX 76301","Wichita Falls, TX 76301",,,(940) 322-8686,,,American Red Cross,American Red Cross,33.9090529,-98.5065925,USA,United States,American Red Cross,,,29-Aug-23,Yes,Yes
Northeast Georgia,Northeast Georgia,Administrative,1,,Ward,3,,"1691 Meriweather Drive, Suite 103  ","1691 Meriweather Drive, Suite 103  ","Watkinsville, GA 30677","Watkinsville, GA 30677",,,706-353-1645,,,American Red Cross,American Red Cross,33.9186031,-83.4650201,USA,United States,American Red Cross,,,29-Aug-23,Yes,Yes
Athens Red Cross Blood and Platelet Donation Center,Athens Red Cross Blood and Platelet Donation Center,Health Care,2,Blood Centre,,,,"Clark Crossing Shopping Ctr, 3525 Atlanta Hwy ","Clark Crossing Shopping Ctr, 3525 Atlanta Hwy ","Athens, GA 30606","Athens, GA 30606",,,1-800-RED CROSS,,,American Red Cross,American Red Cross,33.9368894,-83.4543106,USA,United States,American Red Cross,,,29-Aug-23,Yes,Yes
Riverside County,Riverside County,Administrative,1,,Ward,3,,"6235 River Crest Drive, Suite A ","6235 River Crest Drive, Suite A ","Riverside, CA 92507","Riverside, CA 92507",,,(888) 831-0031,,,American Red Cross,American Red Cross,33.9382004,-117.2928698,USA,United States,American Red Cross,,,29-Aug-23,Yes,Yes
"Cobb Red Cross Blood, Platelet and Plasma Donation Center","Cobb Red Cross Blood, Platelet and Plasma Donation Center",Health Care,2,Blood Centre,,,,"East Lake Shopping Center, 2145 Roswell Road ","East Lake Shopping Center, 2145 Roswell Road ","Marietta, GA 30062","Marietta, GA 30062",,,1-800-RED CROSS,,,American Red Cross,American Red Cross,33.9690556,-84.4905752,USA,United States,American Red Cross,,,29-Aug-23,Yes,Yes
"Culver City Red Cross Blood, Platelet and Plasma Donation Center","Culver City Red Cross Blood, Platelet and Plasma Donation Center",Health Care,2,Blood Centre,,,,5359 Sepulveda Blvd ,5359 Sepulveda Blvd ,"Culver City, CA 90230","Culver City, CA 90230",,,1-800-RED CROSS,,,American Red Cross,American Red Cross,33.9956097,-118.39591,USA,United States,American Red Cross,,,29-Aug-23,Yes,Yes
"Duluth Red Cross Blood, Platelet and Plasma Donation Center","Duluth Red Cross Blood, Platelet and Plasma Donation Center",Health Care,2,Blood Centre,,,,3090 Premiere Pkwy ,3090 Premiere Pkwy ,"Duluth, GA 30097","Duluth, GA 30097",,,1-800-RED CROSS,,,American Red Cross,American Red Cross,33.9976053,-84.0955898,USA,United States,American Red Cross,,,29-Aug-23,Yes,Yes
American Red Cross Commerce Office,American Red Cross Commerce Office,Administrative,1,Office,Ward,3,,2227 S. Atlantic Blvd. ,2227 S. Atlantic Blvd. ,"Commerce, CA 90040","Commerce, CA 90040",,,,,,American Red Cross,American Red Cross,34.0057201,-118.1640835,USA,United States,American Red Cross,,,29-Aug-23,Yes,Yes
American Red Cross Serving Western Los Angeles Chapter,American Red Cross Serving Western Los Angeles Chapter,Administrative,1,Chapter,District,2,,1450 11th Street ,1450 11th Street ,"Santa Monica, CA 90401","Santa Monica, CA 90401",,,(310) 394-3773,,,American Red Cross,American Red Cross,34.0205391,-118.4873313,USA,United States,American Red Cross,,,29-Aug-23,Yes,Yes
"Alpharetta Red Cross Blood, Platelet and Plasma Donation Center","Alpharetta Red Cross Blood, Platelet and Plasma Donation Center",Health Care,2,Blood Centre,,,,3000 Old Alabama RD ,3000 Old Alabama RD ,"Alpharetta, GA 30022","Alpharetta, GA 30022",,,1-800-RED CROSS,,,American Red Cross,American Red Cross,34.0228701,-84.2721672,USA,United States,American Red Cross,,,29-Aug-23,Yes,Yes
Central SC Chapter (Regional Headquarters),Central SC Chapter (Regional Headquarters),Administrative,1,Chapter,District,2,,2751 Bull Street ,2751 Bull Street ,"Columbia, SC 29201","Columbia, SC 29201",,,1-803-540-1200,,,American Red Cross,American Red Cross,34.0252764,-81.0393252,USA,United States,American Red Cross,,,29-Aug-23,Yes,Yes
Columbia Red Cross Blood and Platelet Donation Center - SC,Columbia Red Cross Blood and Platelet Donation Center - SC,Health Care,2,Blood Centre,,,,2751 Bull St ,2751 Bull St ,"Columbia, SC 29201","Columbia, SC 29201",,,1-800-RED CROSS,,,American Red Cross,American Red Cross,34.0252764,-81.0393252,USA,United States,American Red Cross,,,29-Aug-23,Yes,Yes
American Red Cross serving Metro and Southeast LA (Taper Headquarters),American Red Cross serving Metro and Southeast LA (Taper Headquarters),Administrative,1,Regional Headquarters,Provincial,1,,1450 South Central Ave ,1450 South Central Ave ,"Los Angeles, CA 90021","Los Angeles, CA 90021",,,(310) 445-9900,,,American Red Cross,American Red Cross,34.02759,-118.2472541,USA,United States,American Red Cross,,,29-Aug-23,Yes,Yes
"Pomona Red Cross Blood, Platelet and Plasma Donation Center","Pomona Red Cross Blood, Platelet and Plasma Donation Center",Health Care,2,Blood Centre,,,,100 Red Cross Cir ,100 Red Cross Cir ,"Pomona, CA 91768","Pomona, CA 91768",,,1-800-RED CROSS,,,American Red Cross,American Red Cross,34.0536566,-117.8115429,USA,United States,American Red Cross,,,29-Aug-23,Yes,Yes
San Bernardino,San Bernardino,Administrative,1,,Ward,3,,"10600 Trademark Parkway, Suite 406  ","10600 Trademark Parkway, Suite 406  ","Rancho Cucamonga, CA 91730","Rancho Cucamonga, CA 91730",,,(909) 888-1481,,,American Red Cross,American Red Cross,34.0813842,-117.5731777,USA,United States,American Red Cross,,,29-Aug-23,Yes,Yes
American Red Cross Serving San Gabriel Pomona Valley Chapter,American Red Cross Serving San Gabriel Pomona Valley Chapter,Administrative,1,Chapter,District,2,,376 W Huntington Dr ,376 W Huntington Dr ,"Arcadia, CA 91007","Arcadia, CA 91007",,,(626) 447-2193,,,American Red Cross,American Red Cross,34.1331306,-118.0436826,USA,United States,American Red Cross,,,29-Aug-23,Yes,Yes
"Pasadena Red Cross Blood, Platelet and Plasma Donation Center","Pasadena Red Cross Blood, Platelet and Plasma Donation Center",Health Care,2,Blood Centre,,,,2471 East Walnut Street Suite 103 ,2471 East Walnut Street Suite 103 ,"Pasadena, CA 91107","Pasadena, CA 91107",,,1-800-RED CROSS,,,American Red Cross,American Red Cross,34.1484186,-118.0989924,USA,United States,American Red Cross,,,29-Aug-23,Yes,Yes
"Burbank Red Cross Blood, Platelet and Plasma Donation Center","Burbank Red Cross Blood, Platelet and Plasma Donation Center",Health Care,2,Blood Centre,,,,317 N Pass Avenue ,317 N Pass Avenue ,"Burbank, CA 91505","Burbank, CA 91505",,,1-800-RED CROSS,,,American Red Cross,American Red Cross,34.1552423,-118.3465128,USA,United States,American Red Cross,,,29-Aug-23,Yes,Yes
Northern Valley Headquarters,Northern Valley Headquarters,Administrative,1,Regional Headquarters,Provincial,1,,14931 Califa Street #110  ,14931 Califa Street #110  ,"Sherman Oaks, CA 91411","Sherman Oaks, CA 91411",,,,,,American Red Cross,American Red Cross,34.1781286,-118.4589312,USA,United States,American Red Cross,,,29-Aug-23,Yes,Yes
"Woodland Hills Red Cross Blood, Platelet and Plasma Donation Center","Woodland Hills Red Cross Blood, Platelet and Plasma Donation Center",Health Care,2,Blood Centre,,,,21333 Oxnard St. ,21333 Oxnard St. ,"Woodland Hills, CA 91367","Woodland Hills, CA 91367",,,1-800-RED CROSS,,,American Red Cross,American Red Cross,34.179709,-118.5963061,USA,United States,American Red Cross,,,29-Aug-23,Yes,Yes
Pacific Coast ,Pacific Coast ,Administrative,1,,Ward,3,,836 Calle Plano  ,836 Calle Plano  ,"Camarillo, CA 93012","Camarillo, CA 93012",,,(805) 987-1514,,,American Red Cross,American Red Cross,34.1986275,-119.0075751,USA,United States,American Red Cross,,,29-Aug-23,Yes,Yes
Cape Fear Chapter,Cape Fear Chapter,Administrative,1,Chapter,District,2,,1102 South 16th St. ,1102 South 16th St. ,"Wilmington, NC 28401","Wilmington, NC 28401",,,(910) 762-2683,,,American Red Cross,American Red Cross,34.2229409,-77.9275917,USA,United States,American Red Cross,,,29-Aug-23,Yes,Yes
Wilmington Red Cross Blood and Platelet Donation Center,Wilmington Red Cross Blood and Platelet Donation Center,Health Care,2,Blood Centre,,,,1102 South 16th Street ,1102 South 16th Street ,"Wilmington, NC 28401","Wilmington, NC 28401",,,1-800-RED CROSS,,,American Red Cross,American Red Cross,34.2229409,-77.9275917,USA,United States,American Red Cross,,,29-Aug-23,Yes,Yes
American Red Cross - Twentynine Palms,American Red Cross - Twentynine Palms,Administrative,1,,Ward,3,,"Family Service Center, Building 693, Suite 107","Family Service Center, Building 693, Suite 107","Twentynine Palms, CA 92278","Twentynine Palms, CA 92278",,,(760) 830-6685,,,American Red Cross,American Red Cross,34.2327172,-116.0560817,USA,United States,American Red Cross,,,29-Aug-23,Yes,Yes
North Mississippi,North Mississippi,Administrative,1,,Ward,3,,4127 Westside Drive ,4127 Westside Drive ,"Tupelo, MS 38801","Tupelo, MS 38801",,,(662) 842-6101,,,American Red Cross,American Red Cross,34.2504155,-88.7750052,USA,United States,American Red Cross,,,29-Aug-23,Yes,Yes
Northwest Georgia,Northwest Georgia,Administrative,1,,Ward,3,,112 John Maddox Dr. ,112 John Maddox Dr. ,"Rome, GA 30165","Rome, GA 30165",,,844-536-6226,,,American Red Cross,American Red Cross,34.2761444,-85.1986739,USA,United States,American Red Cross,,,29-Aug-23,Yes,Yes
Santa Barbara Office  ,Santa Barbara Office  ,Administrative,1,Office,Ward,3,,2707 State St ,2707 State St ," Santa Barbara, CA 93105"," Santa Barbara, CA 93105",,,(805) 687-1331,,,American Red Cross,American Red Cross,34.437497,-119.7242013,USA,United States,American Red Cross,,,29-Aug-23,Yes,Yes
American Red Cross Palmdale Office,American Red Cross Palmdale Office,Administrative,1,Office,Ward,3,,2715 E. Avenue P ,2715 E. Avenue P ,"Palmdale, CA 93550","Palmdale, CA 93550",,,,,,American Red Cross,American Red Cross,34.6027791,-118.0799646,USA,United States,American Red Cross,,,29-Aug-23,Yes,Yes
Camp LeJeune - American Red Cross,Camp LeJeune - American Red Cross,Administrative,1,,Ward,3,,Bldg 1108 Birch Street  ,Bldg 1108 Birch Street  ,"Camp LeJeune, NC 28547","Camp LeJeune, NC 28547",,,,,,American Red Cross,American Red Cross,34.673179,-77.335918,USA,United States,American Red Cross,,,29-Aug-23,Yes,Yes
Huntsville Red Cross Blood and Platelet Donation Center,Huntsville Red Cross Blood and Platelet Donation Center,Health Care,2,Blood Centre,,,,"1015 Airport Rd, SW ","1015 Airport Rd, SW ","Huntsville, AL 35802","Huntsville, AL 35802",,,1-800-RED CROSS,,,American Red Cross,American Red Cross,34.6902971,-86.5792539,USA,United States,American Red Cross,,,29-Aug-23,Yes,Yes
North Alabama Chapter,North Alabama Chapter,Administrative,1,Chapter,District,2,,1015 Airport Rd SW Suite 202,1015 Airport Rd SW Suite 202,"Huntsville, AL 35802","Huntsville, AL 35802",,,1-256-536-0084 ,,,American Red Cross,American Red Cross,34.6904209,-86.5792291,USA,United States,American Red Cross,,,29-Aug-23,Yes,Yes
Greater Arkansas,Greater Arkansas,Administrative,1,,Ward,3,,"2610 Shackleford Road, Suite B ","2610 Shackleford Road, Suite B ","LIttle Rock, AR 72205","LIttle Rock, AR 72205",,,1-501-748-1000,,,American Red Cross,American Red Cross,34.7317668,-92.3977691,USA,United States,American Red Cross,,,29-Aug-23,Yes,Yes
Upstate SC Chapter,Upstate SC Chapter,Administrative,1,Chapter,District,2,,940 Grove Road ,940 Grove Road ,"Greenville, SC 29605","Greenville, SC 29605",,,1-864-271-8222,,,American Red Cross,American Red Cross,34.8158825,-82.4182234,USA,United States,American Red Cross,,,29-Aug-23,Yes,Yes
Northern South Carolina Office,Northern South Carolina Office,Administrative,1,Office,Ward,3,,200 Piedmont Boulevard ,200 Piedmont Boulevard ,"Rock Hill, SC 29732","Rock Hill, SC 29732",,,803-329-6575,,,American Red Cross,American Red Cross,34.9539994,-81.0517024,USA,United States,American Red Cross,,,29-Aug-23,Yes,Yes
"Rock Hill Red Cross Blood, Platelet and Plasma Donation Center","Rock Hill Red Cross Blood, Platelet and Plasma Donation Center",Health Care,2,Blood Centre,,,,200 Piedmont Blvd ,200 Piedmont Blvd ,"Rock Hill, SC  29732","Rock Hill, SC  29732",,,1-800-RED CROSS,,,American Red Cross,American Red Cross,34.9539994,-81.0517024,USA,United States,American Red Cross,,,29-Aug-23,Yes,Yes
Southern Piedmont Chapter ,Southern Piedmont Chapter ,Administrative,1,Chapter,District,2,,125 Pedro St. Suite E,125 Pedro St. Suite E,"Monroe, NC 28110","Monroe, NC 28110",,,704-283-7402,,,American Red Cross,American Red Cross,34.9968996,-80.550004,USA,United States,American Red Cross,,,29-Aug-23,Yes,Yes
Sandhills Chapter,Sandhills Chapter,Administrative,1,Chapter,District,2,,807 Carol St. ,807 Carol St. ,"Fayetteville, NC 28303","Fayetteville, NC 28303",,,(910) 867-8151,,,American Red Cross,American Red Cross,35.0799066,-78.9380871,USA,United States,American Red Cross,,,29-Aug-23,Yes,Yes
Southeast Tennessee,Southeast Tennessee,Administrative,1,,Ward,3,,4115 S Access Rd. ,4115 S Access Rd. ,"Chattanooga, TN 37406","Chattanooga, TN 37406",,,(423) 265-3455,,,American Red Cross,American Red Cross,35.0875574,-85.2174732,USA,United States,American Red Cross,,,29-Aug-23,Yes,Yes
Mid-South,Mid-South,Administrative,1,,Ward,3,,1399 Madison Avenue ,1399 Madison Avenue ,"Memphis, TN 38104","Memphis, TN 38104",,,(901) 726-1690,,,American Red Cross,American Red Cross,35.1384766,-90.0147233,USA,United States,American Red Cross,,,29-Aug-23,Yes,Yes
Fort Liberty - American Red Cross,Fort Liberty - American Red Cross,Administrative,1,,Ward,3,,1-1139 Macomb Street ,1-1139 Macomb Street ,"Fort Liberty, NC 28310","Fort Liberty, NC 28310",,,,,,American Red Cross,American Red Cross,35.1519035,-78.9899608,USA,United States,American Red Cross,,,29-Aug-23,Yes,Yes
New Mexico,New Mexico,Administrative,1,,Ward,3,,2121 Osuna Rd. NE ,2121 Osuna Rd. NE ,"Albuquerque, NM 87113","Albuquerque, NM 87113",,,(505) 265-8514,,,American Red Cross,American Red Cross,35.154703,-106.6060055,USA,United States,American Red Cross,,,29-Aug-23,Yes,Yes
Panhandle Plains Chapter,Panhandle Plains Chapter,Administrative,1,Chapter,District,2,,1800 S. Harrison ,1800 S. Harrison ,"Amarillo, TX 79102","Amarillo, TX 79102",,,(806) 376-6300,,,American Red Cross,American Red Cross,35.1946711,-101.8427421,USA,United States,American Red Cross,,,29-Aug-23,Yes,Yes
Charlotte Metro Chapter (Regional Headquarters),Charlotte Metro Chapter (Regional Headquarters),Administrative,1,Chapter,District,2,,2425 Park Road   ,2425 Park Road   ,"Charlotte, NC 28203","Charlotte, NC 28203",,,704-376-1661,,,American Red Cross,American Red Cross,35.1972219,-80.8511849,USA,United States,American Red Cross,,,29-Aug-23,Yes,Yes
Charlotte Red Cross Blood Donation Center,Charlotte Red Cross Blood Donation Center,Health Care,2,Blood Centre,,,,2425 Park Road ,2425 Park Road ,"Charlotte, NC 28203","Charlotte, NC 28203",,,1-800-RED CROSS,,,American Red Cross,American Red Cross,35.1972219,-80.8511849,USA,United States,American Red Cross,,,29-Aug-23,Yes,Yes
San Luis Obispo Office,San Luis Obispo Office,Administrative,1,Office,Ward,3,,"225 Prado Road, #A ","225 Prado Road, #A ","San Luis Obispo, CA 93401","San Luis Obispo, CA 93401",,,(805) 543-0696,,,American Red Cross,American Red Cross,35.2546244,-120.6662515,USA,United States,American Red Cross,,,29-Aug-23,Yes,Yes
American Red Cross - Fort Irwin,American Red Cross - Fort Irwin,Administrative,1,,Ward,3,,1204 Normandy Dr. ,1204 Normandy Dr. ,"Fort Irwin, CA 92310","Fort Irwin, CA 92310",,,(760) 380-3697,,,American Red Cross,American Red Cross,35.2592561,-116.6937733,USA,United States,American Red Cross,,,29-Aug-23,Yes,Yes
South Central and Southeast Oklahoma,South Central and Southeast Oklahoma,Administrative,1,,Ward,3,,700 E Independence St. ,700 E Independence St. ,"Shawnee, OK 74804","Shawnee, OK 74804",,,405-273-8800,,,American Red Cross,American Red Cross,35.3476766,-96.9146873,USA,United States,American Red Cross,,,29-Aug-23,Yes,Yes
Kern County & Eastern Sierra,Kern County & Eastern Sierra,Administrative,1,,Ward,3,,5035 Gilmore Ave ,5035 Gilmore Ave ,"Bakersfield, CA 93308","Bakersfield, CA 93308",,,(661) 324-6427,,,American Red Cross,American Red Cross,35.3894379,-119.0582207,USA,United States,American Red Cross,,,29-Aug-23,Yes,Yes
"Huntersville Red Cross Blood, Platelet and Plasma Donation Center","Huntersville Red Cross Blood, Platelet and Plasma Donation Center",Health Care,2,Blood Centre,,,,"9800 Kincey Avenue, Suite 110 ","9800 Kincey Avenue, Suite 110 ","Huntersville, NC 28078","Huntersville, NC 28078",,,1-800-RED CROSS,,,American Red Cross,American Red Cross,35.4036429,-80.8628557,USA,United States,American Red Cross,,,29-Aug-23,Yes,Yes
Central & Southwest Oklahoma,Central & Southwest Oklahoma,Administrative,1,,Ward,3,,601 NE 6th St. ,601 NE 6th St. ,"Oklahoma City, OK 73104","Oklahoma City, OK 73104",,,405-228-9500,,,American Red Cross,American Red Cross,35.474397,-97.501968,USA,United States,American Red Cross,,,29-Aug-23,Yes,Yes
Northeastern NC Chapter,Northeastern NC Chapter,Administrative,1,Chapter,District,2,,700-A Cromwell Dr. ,700-A Cromwell Dr. ,"Greenville, NC 27858","Greenville, NC 27858",,,(252) 355-3800,,,American Red Cross,American Red Cross,35.580747,-77.3708906,USA,United States,American Red Cross,,,29-Aug-23,Yes,Yes
Greenville Red Cross Blood and Platelet Donation Center,Greenville Red Cross Blood and Platelet Donation Center,Health Care,2,Blood Centre,,,,700 Cromwell Drive ,700 Cromwell Drive ,"Greenville, NC 27858","Greenville, NC 27858",,,1-800-RED CROSS,,,American Red Cross,American Red Cross,35.5807954,-77.3709369,USA,United States,American Red Cross,,,29-Aug-23,Yes,Yes
Western North Carolina Chapter,Western North Carolina Chapter,Administrative,1,Chapter,District,2,,100 Edgewood Road ,100 Edgewood Road ,"Asheville, NC 28804","Asheville, NC 28804",,,828-258-3888,,,American Red Cross,American Red Cross,35.6195197,-82.5531176,USA,United States,American Red Cross,,,29-Aug-23,Yes,Yes
Asheville Red Cross Blood and Platelet Donation Center,Asheville Red Cross Blood and Platelet Donation Center,Health Care,2,Blood Centre,,,,100 Edgewood Road ,100 Edgewood Road ,"Asheville, NC 28804","Asheville, NC 28804",,,1-800-RED CROSS,,,American Red Cross,American Red Cross,35.6195197,-82.5531176,USA,United States,American Red Cross,,,29-Aug-23,Yes,Yes
Mid-West Tennessee,Mid-West Tennessee,Administrative,1,,Ward,3,,19 Stonecreek Circle ,19 Stonecreek Circle ,"Jackson, TN 38305","Jackson, TN 38305",,,(731) 427-5543,,,American Red Cross,American Red Cross,35.6749577,-88.8529574,USA,United States,American Red Cross,,,29-Aug-23,Yes,Yes
Blue Ridge Piedmont Chapter ,Blue Ridge Piedmont Chapter ,Administrative,1,Chapter,District,2,,1375 Lenoir Rhyne Boulevard ,1375 Lenoir Rhyne Boulevard ,"Hickory, NC 28602","Hickory, NC 28602",,,828-322-4151,,,American Red Cross,American Red Cross,35.7105838,-81.3101127,USA,United States,American Red Cross,,,29-Aug-23,Yes,Yes
"Cary Red Cross Blood, Platelet and Plasma Donation Center","Cary Red Cross Blood, Platelet and Plasma Donation Center",Health Care,2,Blood Centre,,,,"3700 Regency Pkwy, Suite 150 ","3700 Regency Pkwy, Suite 150 ","Cary, NC 27518","Cary, NC 27518",,,1-800-RED CROSS,,,American Red Cross,American Red Cross,35.7308263,-78.7889696,USA,United States,American Red Cross,,,29-Aug-23,Yes,Yes
Triangle Area Chapter,Triangle Area Chapter,Administrative,1,Chapter,District,2,,100 N. Peartree Lane ,100 N. Peartree Lane ,"Raleigh, NC 27610","Raleigh, NC 27610",,,(919) 231-1602,,,American Red Cross,American Red Cross,35.7842814,-78.59221,USA,United States,American Red Cross,,,29-Aug-23,Yes,Yes
Raleigh Red Cross Blood Donation Center,Raleigh Red Cross Blood Donation Center,Health Care,2,Blood Centre,,,,100 North Peartree Lane ,100 North Peartree Lane ,"Raleigh, NC 27610","Raleigh, NC 27610",,,1-800-RED CROSS,,,American Red Cross,American Red Cross,35.7842814,-78.59221,USA,United States,American Red Cross,,,29-Aug-23,Yes,Yes
Southeast Missouri & Northeast Arkansas,Southeast Missouri & Northeast Arkansas,Administrative,1,,Ward,3,, 2416 S. Madison St., 2416 S. Madison St.,"Jonesboro, AR 72401","Jonesboro, AR 72401",,,1-870-932-3212 ,,,American Red Cross,American Red Cross,35.8185061,-90.7063608,USA,United States,American Red Cross,,,29-Aug-23,Yes,Yes
Heart of Tennessee,Heart of Tennessee,Administrative,1,,Ward,3,,501 Memorial Blvd. ,501 Memorial Blvd. ,"Murfreesboro, TN 37129","Murfreesboro, TN 37129",,,(615) 893-4272,,,American Red Cross,American Red Cross,35.8517477,-86.3981233,USA,United States,American Red Cross,,,29-Aug-23,Yes,Yes
Murfreesboro Red Cross Blood and Platelet Donation Center,Murfreesboro Red Cross Blood and Platelet Donation Center,Health Care,2,Blood Centre,,,,501 Memorial Blvd. ,501 Memorial Blvd. ,"Murfreesboro, TN 37129","Murfreesboro, TN 37129",,,1-800-RED CROSS,,,American Red Cross,American Red Cross,35.8517477,-86.3981233,USA,United States,American Red Cross,,,29-Aug-23,Yes,Yes
"Raleigh Red Cross Blood, Platelet and Plasma Donation Center","Raleigh Red Cross Blood, Platelet and Plasma Donation Center",Health Care,2,Blood Centre,,,,8301 Bandford Way ,8301 Bandford Way ,"Raleigh, NC 27613","Raleigh, NC 27613",,,1-800-RED CROSS,,,American Red Cross,American Red Cross,35.8999849,-78.6801091,USA,United States,American Red Cross,,,29-Aug-23,Yes,Yes
East Tennessee,East Tennessee,Administrative,1,,Ward,3,,6921 Middlebrook Pike ,6921 Middlebrook Pike ,"Knoxville, TN 37909","Knoxville, TN 37909",,,(865) 584-2999,,,American Red Cross,American Red Cross,35.9447339,-84.0297636,USA,United States,American Red Cross,,,29-Aug-23,Yes,Yes
Central NC Chapter,Central NC Chapter,Administrative,1,Chapter,District,2,,"4737 University Drive, Building 3 ","4737 University Drive, Building 3 ","Durham, NC 27707","Durham, NC 27707",,,(919) 489-6541,,,American Red Cross,American Red Cross,35.952967,-78.9637362,USA,United States,American Red Cross,,,29-Aug-23,Yes,Yes
Durham Red Cross Blood and Platelet Donation Center,Durham Red Cross Blood and Platelet Donation Center,Health Care,2,Blood Centre,,,,4737 University Dr ,4737 University Dr ,"Durham, NC 27707","Durham, NC 27707",,,1-800-RED CROSS,,,American Red Cross,American Red Cross,35.952967,-78.9637362,USA,United States,American Red Cross,,,29-Aug-23,Yes,Yes
Brentwood Red Cross Blood and Platelet Donation Center,Brentwood Red Cross Blood and Platelet Donation Center,Health Care,2,Blood Centre,,,,91 Seaboard Lane ,91 Seaboard Lane ,"Brentwood, TN 37027","Brentwood, TN 37027",,,1-800-RED CROSS,,,American Red Cross,American Red Cross,35.9657565,-86.8156934,USA,United States,American Red Cross,,,29-Aug-23,Yes,Yes
American Red Cross of Southern Nevada,American Red Cross of Southern Nevada,Administrative,1,,Ward,3,,"444 E. Warm Springs Road, Suite 110","444 E. Warm Springs Road, Suite 110","Las Vegas , NV 89119","Las Vegas , NV 89119",,,1-702-791-3311,,,American Red Cross,American Red Cross,36.0573945,-115.1537209,USA,United States,American Red Cross,,,29-Aug-23,Yes,Yes
Piedmont Triad Chapter ,Piedmont Triad Chapter ,Administrative,1,Chapter,District,2,, 1501 Yanceyville Street  , 1501 Yanceyville Street  ,"Greensboro, NC 27415","Greensboro, NC 27415",,,336-333-2111,,,American Red Cross,American Red Cross,36.0931113,-79.7807404,USA,United States,American Red Cross,,,29-Aug-23,Yes,Yes
"Greensboro Red Cross Blood, Platelet and Plasma Donation Center","Greensboro Red Cross Blood, Platelet and Plasma Donation Center",Health Care,2,Blood Centre,,,,1501 Yanceyville Street ,1501 Yanceyville Street ,"Greensboro, NC 27405","Greensboro, NC 27405",,,1-800-RED CROSS,,,American Red Cross,American Red Cross,36.0931113,-79.7807404,USA,United States,American Red Cross,,,29-Aug-23,Yes,Yes
Northern Oklahoma Chapter,Northern Oklahoma Chapter,Administrative,1,Chapter,District,2,,408 S Main ,408 S Main ,"Stillwater, OK 74074","Stillwater, OK 74074",,, 405-372-1833,,,American Red Cross,American Red Cross,36.1175588,-97.0589988,USA,United States,American Red Cross,,,29-Aug-23,Yes,Yes
"Winston Salem Red Cross Blood, Platelet and Plasma Donation Center","Winston Salem Red Cross Blood, Platelet and Plasma Donation Center",Health Care,2,Blood Centre,,,,650 Coliseum Dr ,650 Coliseum Dr ,"Winston Salem, NC 27106","Winston Salem, NC 27106",,,1-800-RED CROSS,,,American Red Cross,American Red Cross,36.1231413,-80.261665,USA,United States,American Red Cross,,,29-Aug-23,Yes,Yes
Tulsa Area Chapter,Tulsa Area Chapter,Administrative,1,Chapter,District,2,,10151 E. 11th St. ,10151 E. 11th St. ," Tulsa, OK  74128"," Tulsa, OK  74128",,, 918-831-1100,,,American Red Cross,American Red Cross,36.1505889,-95.8624641,USA,United States,American Red Cross,,,29-Aug-23,Yes,Yes
Tulsa Red Cross Blood and Platelet Donation Center,Tulsa Red Cross Blood and Platelet Donation Center,Health Care,2,Blood Centre,,,,10151 E. 11th St. ,10151 E. 11th St. ,"Tulsa, OK 74128","Tulsa, OK 74128",,,1-800-RED CROSS,,,American Red Cross,American Red Cross,36.1505889,-95.8624641,USA,United States,American Red Cross,,,29-Aug-23,Yes,Yes
 Nashville Area (Regional Headquarters), Nashville Area (Regional Headquarters),Administrative,1,Regional Headquarters,Provincial,1,,2201 Charlotte Ave. ,2201 Charlotte Ave. ,"Nashville, TN 37203","Nashville, TN 37203",,,(615) 250-4300,,,American Red Cross,American Red Cross,36.1558348,-86.807676,USA,United States,American Red Cross,,,29-Aug-23,Yes,Yes
"Nashville Red Cross Blood, Platelet and Plasma Donation Center","Nashville Red Cross Blood, Platelet and Plasma Donation Center",Health Care,2,Blood Centre,,,,2201 Charlotte Ave ,2201 Charlotte Ave ,"Nashville, TN 37203","Nashville, TN 37203",,,1-800-RED CROSS,,,American Red Cross,American Red Cross,36.1558348,-86.807676,USA,United States,American Red Cross,,,29-Aug-23,Yes,Yes
"Central Valley Chapter, Visalia office","Central Valley Chapter, Visalia office",Administrative,1,Chapter,District,2,,"208 West Main Street, Suite B ","208 West Main Street, Suite B ","Visalia, CA 93291 ","Visalia, CA 93291 ",,,(559) 455-1000,,,American Red Cross,American Red Cross,36.330661,-119.293853,USA,United States,American Red Cross,,,29-Aug-23,Yes,Yes
Northwest Arkansas,Northwest Arkansas,Administrative,1,,Ward,3,,1200 W. Walnut St. Suite 2301 ,1200 W. Walnut St. Suite 2301 ,"Rogers, AR 72756","Rogers, AR 72756",,,1-479-633-8330,,,American Red Cross,American Red Cross,36.333026,-94.1340386,USA,United States,American Red Cross,,,29-Aug-23,Yes,Yes
Northeast Tennessee,Northeast Tennessee,Administrative,1,,Ward,3,,660 Eastern Star Rd. ,660 Eastern Star Rd. ,"Kingsport, TN 37663","Kingsport, TN 37663",,,(423) 765-4222 ,,,American Red Cross,American Red Cross,36.4457851,-82.5199625,USA,United States,American Red Cross,,,29-Aug-23,Yes,Yes
Tennessee River,Tennessee River,Administrative,1,,Ward,3,,1760 Madison St. ,1760 Madison St. ,"Clarksville, TN 37043","Clarksville, TN 37043",,,(931) 645-6401,,,American Red Cross,American Red Cross,36.5138629,-87.316079,USA,United States,American Red Cross,,,29-Aug-23,Yes,Yes
American Red Cross of Tennessee River,American Red Cross of Tennessee River,Administrative,1,,Ward,3,,1760 Madison Street ,1760 Madison Street ,"Clarksville, TN 37043","Clarksville, TN 37043",,,1-800-RED-CROSS,,,American Red Cross,American Red Cross,36.5138629,-87.316079,USA,United States,American Red Cross,,,29-Aug-23,Yes,Yes
American Red Cross of the Central Coast,American Red Cross of the Central Coast,Administrative,1,,Ward,3,,Eighth Ave. at Dolores St. ,Eighth Ave. at Dolores St. ,"Carmel, CA 93921","Carmel, CA 93921",,,(831) 624-6921,,,American Red Cross,American Red Cross,36.5550975,-121.9226799,USA,United States,American Red Cross,,,29-Aug-23,Yes,Yes
American Red Cross - Fort Campbell,American Red Cross - Fort Campbell,Administrative,1,,Ward,3,,95 Michigan Ave  Bldg 43,95 Michigan Ave  Bldg 43,"Fort Campbell, KY 42223","Fort Campbell, KY 42223",,,(270) 798-2171,,,American Red Cross,American Red Cross,36.6402083,-87.4497722,USA,United States,American Red Cross,,,29-Aug-23,Yes,Yes
Central Valley ,Central Valley ,Administrative,1,,Ward,3,,1300 W. Shaw Ave. Suite 4B ,1300 W. Shaw Ave. Suite 4B ,"Fresno, CA 93711","Fresno, CA 93711",,,(559) 455-1000,,,American Red Cross,American Red Cross,36.8086727,-119.8158221,USA,United States,American Red Cross,,,29-Aug-23,Yes,Yes
South Central Kentucky Chapter,South Central Kentucky Chapter,Administrative,1,Chapter,District,2,,"958 Collett Avenue, Suite 800 ","958 Collett Avenue, Suite 800 ","Bowling Green, KY 42101","Bowling Green, KY 42101",,,270-781-7377,,,American Red Cross,American Red Cross,36.9861921,-86.4338125,USA,United States,American Red Cross,,,29-Aug-23,Yes,Yes
Paducah Red Cross Blood and Platelet Donation Center,Paducah Red Cross Blood and Platelet Donation Center,Health Care,2,Blood Centre,,,,4635 Falconcrest Drive ,4635 Falconcrest Drive ,"Paducah, KY 42001","Paducah, KY 42001",,,1-800-RED CROSS,,,American Red Cross,American Red Cross,37.0673585,-88.6849576,USA,United States,American Red Cross,,,29-Aug-23,Yes,Yes
St. George Blood Donation Center,St. George Blood Donation Center,Health Care,2,Blood Centre,,,,"476 E. Riverside Drive, Ste B-6 ","476 E. Riverside Drive, Ste B-6 ","Saint George, UT 84790","Saint George, UT 84790",,,1-800-RED CROSS,,,American Red Cross,American Red Cross,37.0852175,-113.5729431,USA,United States,American Red Cross,,,29-Aug-23,Yes,Yes
Springfield Red Cross Blood and Platelet Donation Center - MO,Springfield Red Cross Blood and Platelet Donation Center - MO,Health Care,2,Blood Centre,,,,"313 E. Battlefield, Ste B ","313 E. Battlefield, Ste B ","Springfield, MO 65807","Springfield, MO 65807",,,1-800-RED CROSS,,,American Red Cross,American Red Cross,37.1622439,-93.2923983,USA,United States,American Red Cross,,,29-Aug-23,Yes,Yes
Southern Missouri Chapter,Southern Missouri Chapter,Administrative,1,Chapter,District,2,,1545 N West Bypass  ,1545 N West Bypass  ,"Springfield, MO 65803","Springfield, MO 65803",,,417-832-9500,,,American Red Cross,American Red Cross,37.2278736,-93.3488884,USA,United States,American Red Cross,,,29-Aug-23,Yes,Yes
Eastern Kentucky Chapter,Eastern Kentucky Chapter,Administrative,1,Chapter,District,2,,"101 Bulldog Lane, Suite 300 ","101 Bulldog Lane, Suite 300 ","Hazard, KY 41701","Hazard, KY 41701",,,606-629-3344,,,American Red Cross,American Red Cross,37.2419447,-83.1854568,USA,United States,American Red Cross,,,29-Aug-23,Yes,Yes
Southeast Missouri & Northeast Arkansas Chapter,Southeast Missouri & Northeast Arkansas Chapter,Administrative,1,Chapter,District,2,,2430 Myra Drive ,2430 Myra Drive ,"Cape Girardeau, MO 63703","Cape Girardeau, MO 63703",,,573-335-9471,,,American Red Cross,American Red Cross,37.3054393,-89.5554749,USA,United States,American Red Cross,,,29-Aug-23,Yes,Yes
Cape Girardeau Red Cross Blood and Platelet Donation Center,Cape Girardeau Red Cross Blood and Platelet Donation Center,Health Care,2,Blood Centre,,,,20 South Mt Auburn Road ,20 South Mt Auburn Road ,"Cape Girardeau, MO 63703","Cape Girardeau, MO 63703",,,1-800-RED CROSS,,,American Red Cross,American Red Cross,37.3067471,-89.5734594,USA,United States,American Red Cross,,,29-Aug-23,Yes,Yes
American Red Cross of the Silicon Valley,American Red Cross of the Silicon Valley,Administrative,1,,Ward,3,,2731 North 1st St. ,2731 North 1st St. ,"San Jose, CA 95134","San Jose, CA 95134",,,(877) 727-6771,,,American Red Cross,American Red Cross,37.3902164,-121.9321116,USA,United States,American Red Cross,,,29-Aug-23,Yes,Yes
"San Jose Red Cross Blood, Platelet and Plasma Donation Center","San Jose Red Cross Blood, Platelet and Plasma Donation Center",Health Care,2,Blood Centre,,,,2731 North First Street ,2731 North First Street ,"San Jose, CA 95134","San Jose, CA 95134",,,1-800-RED CROSS,,,American Red Cross,American Red Cross,37.3902164,-121.9321116,USA,United States,American Red Cross,,,29-Aug-23,Yes,Yes
Turlock Red Cross Blood and Platelet Donation Center,Turlock Red Cross Blood and Platelet Donation Center,Health Care,2,Blood Centre,,,,655 E. Hawkeye ,655 E. Hawkeye ,"Turlock, CA 95380","Turlock, CA 95380",,,1-800-RED-CROSS,,,American Red Cross,American Red Cross,37.5076208,-120.8411535,USA,United States,American Red Cross,,,29-Aug-23,Yes,Yes
Fremont-Newark Red Cross Blood and Platelet Donation Center,Fremont-Newark Red Cross Blood and Platelet Donation Center,Health Care,2,Blood Centre,,,,39227 Cedar Boulevard ,39227 Cedar Boulevard ,"Newark, CA 94560","Newark, CA 94560",,,1-800-RED CROSS,,,American Red Cross,American Red Cross,37.5225312,-122.0049341,USA,United States,American Red Cross,,,29-Aug-23,Yes,Yes
Modesto Red Cross Blood and Platelet Donation Center,Modesto Red Cross Blood and Platelet Donation Center,Health Care,2,Blood Centre,,,,1900 W Orangeburg Ave ,1900 W Orangeburg Ave ,"Modesto, CA 95350","Modesto, CA 95350",,,1-800-RED CROSS,,,American Red Cross,American Red Cross,37.6638888,-121.0261286,USA,United States,American Red Cross,,,29-Aug-23,Yes,Yes
"Pleasanton Red Cross Blood, Platelet and Plasma Donation Center","Pleasanton Red Cross Blood, Platelet and Plasma Donation Center",Health Care,2,Blood Centre,,,,5880 W. Las Positas Blvd. Suite #34 ,5880 W. Las Positas Blvd. Suite #34 ,"Pleasanton, CA 94588","Pleasanton, CA 94588",,,1-800-RED CROSS,,,American Red Cross,American Red Cross,37.6831945,-121.8972863,USA,United States,American Red Cross,,,29-Aug-23,Yes,Yes
American Red Cross of South Central and Southeast Kansas,American Red Cross of South Central and Southeast Kansas,Administrative,1,,Ward,3,,707 N. Main ,707 N. Main ,"Wichita, KS 67203","Wichita, KS 67203",,,1-316-219-4000,,,American Red Cross,American Red Cross,37.6966151,-97.3390815,USA,United States,American Red Cross,,,29-Aug-23,Yes,Yes
Wichita Red Cross Blood and Platelet Donation Center,Wichita Red Cross Blood and Platelet Donation Center,Health Care,2,Blood Centre,,,,707 N. Main St ,707 N. Main St ,"Wichita, KS 67203","Wichita, KS 67203",,,1-800-RED CROSS,,,American Red Cross,American Red Cross,37.6966151,-97.3390815,USA,United States,American Red Cross,,,29-Aug-23,Yes,Yes
Western Kentucky Chapter,Western Kentucky Chapter,Administrative,1,Chapter,District,2,,"1700 Frederica St., Suite 105 ","1700 Frederica St., Suite 105 ","Owensboro, KY 42301","Owensboro, KY 42301",,,270-683-2438,,,American Red Cross,American Red Cross,37.7595017,-87.1124344,USA,United States,American Red Cross,,,29-Aug-23,Yes,Yes
Ft. Leonard Wood ,Ft. Leonard Wood ,Administrative,1,,Ward,3,,"13486 Replacement Ave, Building 470, Room 1130 ","13486 Replacement Ave, Building 470, Room 1130 ","Ft. Leonard Wood, MO 65473","Ft. Leonard Wood, MO 65473",,,573-596-0300,,,American Red Cross,American Red Cross,37.7614004,-92.1191021,USA,United States,American Red Cross,,,29-Aug-23,Yes,Yes
American Red Cross of the Bay Area ,American Red Cross of the Bay Area ,Administrative,1,,Ward,3,,1663 Market Street  ,1663 Market Street  ,"San Francisco, CA 94103","San Francisco, CA 94103",,,(415) 427-8000 ,,,American Red Cross,American Red Cross,37.7730002,-122.4213973,USA,United States,American Red Cross,,,29-Aug-23,Yes,Yes
San Francisco Blood and Platelet Donation Center Red Cross,San Francisco Blood and Platelet Donation Center Red Cross,Health Care,2,Blood Centre,,,,1663 Market Street ,1663 Market Street ,"San Francisco, CA 94103","San Francisco, CA 94103",,,1-800-RED CROSS,,,American Red Cross,American Red Cross,37.7730002,-122.4213973,USA,United States,American Red Cross,,,29-Aug-23,Yes,Yes
Central & Southern West Virginia - Beckley,Central & Southern West Virginia - Beckley,Administrative,1,,Ward,3,,200 Industrial Drive ,200 Industrial Drive ,"Beckley, WV 25801","Beckley, WV 25801",,,1-844-216-8286,,,American Red Cross,American Red Cross,37.810687,-81.1815899,USA,United States,American Red Cross,,,29-Aug-23,Yes,Yes
Beckley Red Cross Blood Donation Center,Beckley Red Cross Blood Donation Center,Health Care,2,Blood Centre,,,,200 Industrial Dr ,200 Industrial Dr ,"Beckley, WV 25801","Beckley, WV 25801",,,1-800-RED CROSS,,,American Red Cross,American Red Cross,37.810687,-81.1815899,USA,United States,American Red Cross,,,29-Aug-23,Yes,Yes
Oakland Red Cross Blood and Platelet Donation Center - College Ave,Oakland Red Cross Blood and Platelet Donation Center - College Ave,Health Care,2,Blood Centre,,,,5450 College Ave ,5450 College Ave ,"Oakland, CA 94618","Oakland, CA 94618",,,1-800-RED CROSS,,,American Red Cross,American Red Cross,37.8413707,-122.2511645,USA,United States,American Red Cross,,,29-Aug-23,Yes,Yes
"Contra Costa Red Cross Blood, Platelet and Plasma Donation Center","Contra Costa Red Cross Blood, Platelet and Plasma Donation Center",Health Care,2,Blood Centre,,,,140 Gregory Lane ,140 Gregory Lane ,"Pleasant Hill, CA 94523","Pleasant Hill, CA 94523",,,1-800-RED CROSS,,,American Red Cross,American Red Cross,37.9476533,-122.0648763,USA,United States,American Red Cross,,,29-Aug-23,Yes,Yes
American Red Cross  of the Heart of the Valley,American Red Cross  of the Heart of the Valley,Administrative,1,,Ward,3,,65 North Commerce St. ,65 North Commerce St. ," Stockton, CA 95202"," Stockton, CA 95202",,,(209) 645-1239,,,American Red Cross,American Red Cross,37.952977,-121.2929406,USA,United States,American Red Cross,,,29-Aug-23,Yes,Yes
Sonora Red Cross Blood and Platelet Donation Center,Sonora Red Cross Blood and Platelet Donation Center,Health Care,2,Blood Centre,,,,850 Sanguinetti Road ,850 Sanguinetti Road ,"Sonora, CA 95370","Sonora, CA 95370",,,1-800-RED CROSS,,,American Red Cross,American Red Cross,37.9742607,-120.3680059,USA,United States,American Red Cross,,,29-Aug-23,Yes,Yes
Southwest Chapter,Southwest Chapter,Administrative,1,Chapter,District,2,,29 S Stockwell Rd. ,29 S Stockwell Rd. ,"Evansville, IN 47714","Evansville, IN 47714",,,(812) 471-7200,,,American Red Cross,American Red Cross,37.9758116,-87.5030193,USA,United States,American Red Cross,,,29-Aug-23,Yes,Yes
Evansville Red Cross Blood and Platelet Donation Center,Evansville Red Cross Blood and Platelet Donation Center,Health Care,2,Blood Centre,,,,29 South Stockwell Road ,29 South Stockwell Road ,"Evansville, IN 47714","Evansville, IN 47714",,,1-800-RED CROSS,,,American Red Cross,American Red Cross,37.9758116,-87.5030193,USA,United States,American Red Cross,,,29-Aug-23,Yes,Yes
Stockton Red Cross Blood and Platelet Donation Center - North,Stockton Red Cross Blood and Platelet Donation Center - North,Health Care,2,Blood Centre,,,,2888 W March Ln ,2888 W March Ln ,"Stockton, CA 95207","Stockton, CA 95207",,,1-800-RED CROSS,,,American Red Cross,American Red Cross,37.9839666,-121.3472386,USA,United States,American Red Cross,,,29-Aug-23,Yes,Yes
Bluegrass Area Chapter,Bluegrass Area Chapter,Administrative,1,Chapter,District,2,,1450 Newtown Pike  ,1450 Newtown Pike  ,"Lexington, KY 40511","Lexington, KY 40511",,,859-253-1331,,,American Red Cross,American Red Cross,38.0859877,-84.4891546,USA,United States,American Red Cross,,,29-Aug-23,Yes,Yes
Louisville Red Cross Blood and Platelet Donation Center,Louisville Red Cross Blood and Platelet Donation Center,Health Care,2,Blood Centre,,,,520 East Chestnut ,520 East Chestnut ,"Louisville, KY 40202","Louisville, KY 40202",,,1-800-RED CROSS,,,American Red Cross,American Red Cross,38.2473288,-85.7445571,USA,United States,American Red Cross,,,29-Aug-23,Yes,Yes
Louisville Area Chapter - Regional Headquarters,Louisville Area Chapter - Regional Headquarters,Administrative,1,Chapter,District,2,,510 E. Chestnut Street ,510 E. Chestnut Street ,"Louisville, KY 40201","Louisville, KY 40201",,,502-589-4450,,,American Red Cross,American Red Cross,38.2473642,-85.7446557,USA,United States,American Red Cross,,,29-Aug-23,Yes,Yes
"Louisville Red Cross Blood, Platelet and Plasma Donation Center - East","Louisville Red Cross Blood, Platelet and Plasma Donation Center - East",Health Care,2,Blood Centre,,,,291 N. Hubbards Lane ,291 N. Hubbards Lane ,"Louisville, KY 40207","Louisville, KY 40207",,,1-800-RED CROSS,,,American Red Cross,American Red Cross,38.2580388,-85.6377766,USA,United States,American Red Cross,,,29-Aug-23,Yes,Yes
Central & Southern West Virginia - Charleston,Central & Southern West Virginia - Charleston,Administrative,1,,Ward,3,,113 Lakeview Drive ,113 Lakeview Drive ,"Charleston, WV 25313","Charleston, WV 25313",,,1-844-216-8286,,,American Red Cross,American Red Cross,38.4118445,-81.8028937,USA,United States,American Red Cross,,,29-Aug-23,Yes,Yes
Tri State - Huntington,Tri State - Huntington,Administrative,1,,Ward,3,,1111 Veterans Memorial Blvd. ,1111 Veterans Memorial Blvd. ,"Huntington, WV 25701","Huntington, WV 25701",,,1-844-216-8286,,,American Red Cross,American Red Cross,38.4235332,-82.4396653,USA,United States,American Red Cross,,,29-Aug-23,Yes,Yes
Huntington Red Cross Blood Donation Center,Huntington Red Cross Blood Donation Center,Health Care,2,Blood Centre,,,,1111 Veterans Memorial Blvd ,1111 Veterans Memorial Blvd ,"Huntington, WV 25701","Huntington, WV 25701",,,1-800-RED CROSS,,,American Red Cross,American Red Cross,38.4235332,-82.4396653,USA,United States,American Red Cross,,,29-Aug-23,Yes,Yes
"Tri State - Ashland, KY","Tri State - Ashland, KY",Administrative,1,,Ward,3,,4201 Blackburn Ave ,4201 Blackburn Ave ,"Ashland, KY 41101","Ashland, KY 41101",,,1-844-216-8286,,,American Red Cross,American Red Cross,38.4516663,-82.6328625,USA,United States,American Red Cross,,,29-Aug-23,Yes,Yes
American Red Cross of the North Bay,American Red Cross of the North Bay,Administrative,1,,Ward,3,,5297 Aero Drive ,5297 Aero Drive ,"Santa Rosa, CA 95403","Santa Rosa, CA 95403",,,(707) 577-7600,,,American Red Cross,American Red Cross,38.5107409,-122.7656414,USA,United States,American Red Cross,,,29-Aug-23,Yes,Yes
"Greater St. Louis Chapter - Belleville, IL","Greater St. Louis Chapter - Belleville, IL",Administrative,1,Chapter,District,2,,2 Elm Drive ,2 Elm Drive ,"Belleville, IL 62221","Belleville, IL 62221",,,618-397-4600,,,American Red Cross,American Red Cross,38.5160449,-89.9608384,USA,United States,American Red Cross,,,29-Aug-23,Yes,Yes
Marine Corps Base Quantico,Marine Corps Base Quantico,Administrative,1,,Ward,3,,2034 Barnett Ave. ,2034 Barnett Ave. ,"Quantico, VA 22134","Quantico, VA 22134",,,,,,American Red Cross,American Red Cross,38.5221625,-77.2955469,USA,United States,American Red Cross,,,29-Aug-23,Yes,Yes
Washington Red Cross Blood and Platelet Donation Center,Washington Red Cross Blood and Platelet Donation Center,Health Care,2,Blood Centre,,,,"6244 Hwy 100, Suite 210 ","6244 Hwy 100, Suite 210 ","Washington, MO 63090","Washington, MO 63090",,,1-800-RED CROSS,,,American Red Cross,American Red Cross,38.5434524,-91.0244714,USA,United States,American Red Cross,,,29-Aug-23,Yes,Yes
"St. Louis Red Cross Blood, Platelet and Plasma Donation Center - South County","St. Louis Red Cross Blood, Platelet and Plasma Donation Center - South County",Health Care,2,Blood Centre,,,,9230 Watson Rd. ,9230 Watson Rd. ,"St. Louis, MO 63126","St. Louis, MO 63126",,,1-800-RED CROSS,,,American Red Cross,American Red Cross,38.5578254,-90.373401,USA,United States,American Red Cross,,,29-Aug-23,Yes,Yes
Central and Northern Missouri - Jefferson City,Central and Northern Missouri - Jefferson City,Administrative,1,,Ward,3,,3230 Emerald Lane ,3230 Emerald Lane ,"Jefferson City, MO 65109","Jefferson City, MO 65109",,,573-635-1132,,,American Red Cross,American Red Cross,38.5708309,-92.2414647,USA,United States,American Red Cross,,,29-Aug-23,Yes,Yes
Jefferson City Red Cross Blood and Platelet Donation Center,Jefferson City Red Cross Blood and Platelet Donation Center,Health Care,2,Blood Centre,,,,3230 Emerald Lane ,3230 Emerald Lane ,"Jefferson City, MO 65109","Jefferson City, MO 65109",,,1-800-RED CROSS,,,American Red Cross,American Red Cross,38.5708309,-92.2414647,USA,United States,American Red Cross,,,29-Aug-23,Yes,Yes
Fairview Heights Red Cross Blood and Platelet Donation Center,Fairview Heights Red Cross Blood and Platelet Donation Center,Health Care,2,Blood Centre,,,,10886 Lincoln Trail ,10886 Lincoln Trail ,"Fairview Heights, IL 62208","Fairview Heights, IL 62208",,,1-800-RED CROSS,,,American Red Cross,American Red Cross,38.5923943,-89.9877037,USA,United States,American Red Cross,,,29-Aug-23,Yes,Yes
Sierra-Delta Chapter,Sierra-Delta Chapter,Administrative,1,Chapter,District,2,,1565 Exposition Blvd ,1565 Exposition Blvd ,"Sacramento, CA 95815","Sacramento, CA 95815",,,916-993-7070,,,American Red Cross,American Red Cross,38.5959872,-121.4348575,USA,United States,American Red Cross,,,29-Aug-23,Yes,Yes
St Louis Area,St Louis Area,Administrative,1,,Ward,3,,10195 Corporate Square Drive ,10195 Corporate Square Drive ," St. Louis, MO 63132"," St. Louis, MO 63132",,,314-516-2800,,,American Red Cross,American Red Cross,38.6803189,-90.4029565,USA,United States,American Red Cross,,,29-Aug-23,Yes,Yes
Chesterfield Red Cross Blood and Platelet Donation Center - West County,Chesterfield Red Cross Blood and Platelet Donation Center - West County,Health Care,2,Blood Centre,,,,13369 Olive Blvd. ,13369 Olive Blvd. ,"Chesterfield, MO 63017","Chesterfield, MO 63017",,,1-800-RED CROSS,,,American Red Cross,American Red Cross,38.681793,-90.4951805,USA,United States,American Red Cross,,,29-Aug-23,Yes,Yes
Fort Belvoir Army Base - American Red Cross,Fort Belvoir Army Base - American Red Cross,Administrative,1,,Ward,3,,9716 Middleton Rd. ,9716 Middleton Rd. ,"Fort Belvoir, VA 22060","Fort Belvoir, VA 22060",,,800-733-2767,,,American Red Cross,American Red Cross,38.6934072,-77.1408473,USA,United States,American Red Cross,,,29-Aug-23,Yes,Yes
"Tri State - Portsmouth, OH","Tri State - Portsmouth, OH",Administrative,1,,Ward,3,,602 Chillicothe Street Suite M111,602 Chillicothe Street Suite M111,"Portsmouth, OH 45662","Portsmouth, OH 45662",,,1-844-216-8286,,,American Red Cross,American Red Cross,38.735041,-82.9963128,USA,United States,American Red Cross,,,29-Aug-23,Yes,Yes
St. Charles County Red Cross Blood and Platelet Donation Center,St. Charles County Red Cross Blood and Platelet Donation Center,Health Care,2,Blood Centre,,,,252 Mid Rivers Center ,252 Mid Rivers Center ,"Saint Peters, MO 63376","Saint Peters, MO 63376",,,1-800-RED CROSS,,,American Red Cross,American Red Cross,38.7930408,-90.6199353,USA,United States,American Red Cross,,,29-Aug-23,Yes,Yes
Ohio River Valley - Spencer,Ohio River Valley - Spencer,Administrative,1,,Ward,3,,373 E Main St. ,373 E Main St. ,"Spencer, WV 25276","Spencer, WV 25276",,,1-844-216-8286,,,American Red Cross,American Red Cross,38.796227,-81.337529,USA,United States,American Red Cross,,,29-Aug-23,Yes,Yes
Joint Base Andrews - Malcolm Grow Air Force Medical Center,Joint Base Andrews - Malcolm Grow Air Force Medical Center,Administrative,1,,Ward,3,,1050 West Perimeter Rd. ,1050 West Perimeter Rd. ,"Joint Base Andrews, MD 20762","Joint Base Andrews, MD 20762",,,,,,American Red Cross,American Red Cross,38.8087509,-76.8957855,USA,United States,American Red Cross,,,29-Aug-23,Yes,Yes
Southeastern Colorado,Southeastern Colorado,Administrative,1,,Ward,3,,1040 S. 8th St. ,1040 S. 8th St. ,"Colorado Springs, CO 80905","Colorado Springs, CO 80905",,,1-719-632-3563,,,American Red Cross,American Red Cross,38.8182139,-104.842764,USA,United States,American Red Cross,,,29-Aug-23,Yes,Yes
Salina Red Cross Blood and Platelet Donation Center,Salina Red Cross Blood and Platelet Donation Center,Health Care,2,Blood Centre,,,,120 W. Prescott ,120 W. Prescott ,"Salina, KS 67401","Salina, KS 67401",,,1-800-RED CROSS,,,American Red Cross,American Red Cross,38.8305073,-97.6102992,USA,United States,American Red Cross,,,29-Aug-23,Yes,Yes
Northern Virginia Chapter - Regional Headquarters,Northern Virginia Chapter - Regional Headquarters,Administrative,1,Chapter,District,2,,8550 Arlington Blvd. ,8550 Arlington Blvd. ,"Fairfax, VA 22031","Fairfax, VA 22031",,,703-584-8400,,,American Red Cross,American Red Cross,38.8661113,-77.238274,USA,United States,American Red Cross,,,29-Aug-23,Yes,Yes
Fairfax Red Cross Blood and Platelet Donation Center,Fairfax Red Cross Blood and Platelet Donation Center,Health Care,2,Blood Centre,,,,"8550 Arlington Blvd, suite 325 ","8550 Arlington Blvd, suite 325 ","Fairfax, VA 22031","Fairfax, VA 22031",,,1-800-RED CROSS,,,American Red Cross,American Red Cross,38.8661483,-77.2380913,USA,United States,American Red Cross,,,29-Aug-23,Yes,Yes
Hays Red Cross Blood Donation Center,Hays Red Cross Blood Donation Center,Health Care,2,Blood Centre,,,,208 E. 8th St ,208 E. 8th St ,"Hays, KS 67601","Hays, KS 67601",,,1-800-RED CROSS,,,American Red Cross,American Red Cross,38.8695178,-99.3297685,USA,United States,American Red Cross,,,29-Aug-23,Yes,Yes
"Washington, D.C. Office","Washington, D.C. Office",Administrative,1,Office,Head Office,0,,430 17th St NW ,430 17th St NW ,"Washington, DC 20006","Washington, DC 20006",,,,,,American Red Cross,American Red Cross,38.8947847,-77.0401649,USA,United States,American Red Cross,,,29-Aug-23,Yes,Yes
"Washington, D.C. Office","Washington, D.C. Office",Administrative,1,Office,Ward,3,,430 17th St NW ,430 17th St NW ,"Washington, DC 20006","Washington, DC 20006",,,,,,American Red Cross,American Red Cross,38.8947847,-77.0401649,USA,United States,American Red Cross,,,29-Aug-23,Yes,Yes
District of Columbia Chapter,District of Columbia Chapter,Administrative,1,Chapter,District,2,,"431 18th St NW, 5th Floor ","431 18th St NW, 5th Floor ","Washington, DC 20006","Washington, DC 20006",,,703-584-8400,,,American Red Cross,American Red Cross,38.8949263,-77.0414244,USA,United States,American Red Cross,,,29-Aug-23,Yes,Yes
Dr. Charles Drew Red Cross Blood and Platelet  Donation Center,Dr. Charles Drew Red Cross Blood and Platelet  Donation Center,Health Care,2,Blood Centre,,,,1730 E Street NW ,1730 E Street NW ,"Washington, DC 20006","Washington, DC 20006",,,1-800-RED CROSS,,,American Red Cross,American Red Cross,38.8951314,-77.0407497,USA,United States,American Red Cross,,,29-Aug-23,Yes,Yes
Central and Northern Missouri,Central and Northern Missouri,Administrative,1,,Ward,3,,1511 S. Providence Road ,1511 S. Providence Road ," Columbia, MO 65203"," Columbia, MO 65203",,,573-635-1132,,,American Red Cross,American Red Cross,38.9320359,-92.3387086,USA,United States,American Red Cross,,,29-Aug-23,Yes,Yes
Columbia Red Cross Blood and Platelet Donation Center - MO,Columbia Red Cross Blood and Platelet Donation Center - MO,Health Care,2,Blood Centre,,,,1511 S. Providence Rd. ,1511 S. Providence Rd. ,"Columbia, MO 65203","Columbia, MO 65203",,,1-800-RED CROSS,,,American Red Cross,American Red Cross,38.9320359,-92.3387086,USA,United States,American Red Cross,,,29-Aug-23,Yes,Yes
Walter Reed National Military Medical Center - American Red Cross,Walter Reed National Military Medical Center - American Red Cross,Administrative,1,,Ward,3,,"8901 Wisconsin Avenue Building 10, 1st Floor, Room 1022","8901 Wisconsin Avenue Building 10, 1st Floor, Room 1022","Bethesda, MD 20889","Bethesda, MD 20889",,,301-295-1538,,,American Red Cross,American Red Cross,38.9907132,-77.0951619,USA,United States,American Red Cross,,,29-Aug-23,Yes,Yes
"Montgomery, Howard and Frederick Counties Chapter","Montgomery, Howard and Frederick Counties Chapter",Administrative,1,Chapter,District,2,,2020 East West Highway ,2020 East West Highway ,"Silver Spring, MD 20910","Silver Spring, MD 20910",,,301-588-2515,,,American Red Cross,American Red Cross,38.9943845,-77.0446178,USA,United States,American Red Cross,,,29-Aug-23,Yes,Yes
Greater Kansas City and Northwest Missouri,Greater Kansas City and Northwest Missouri,Administrative,1,,Ward,3,,"6601 Winchester Ave., Suite 110 ","6601 Winchester Ave., Suite 110 ","Kansas City, MO 64133","Kansas City, MO 64133",,,816-931-8400,,,American Red Cross,American Red Cross,39.0045053,-94.503587,USA,United States,American Red Cross,,,29-Aug-23,Yes,Yes
American Red Cross of Greater Kansas,American Red Cross of Greater Kansas,Administrative,1,,Ward,3,,1321 SW Topeka Boulevard ,1321 SW Topeka Boulevard ," Topeka, KS 66612"," Topeka, KS 66612",,,1-785-354-9238,,,American Red Cross,American Red Cross,39.0419056,-95.6833299,USA,United States,American Red Cross,,,29-Aug-23,Yes,Yes
"Rockville Red Cross Blood, Platelet and Plasma Donation Center","Rockville Red Cross Blood, Platelet and Plasma Donation Center",Health Care,2,Blood Centre,,,,"11820 Parklawn Drive, Ste 510 ","11820 Parklawn Drive, Ste 510 ","Rockville, MD 20852","Rockville, MD 20852",,,1-800-RED CROSS,,,American Red Cross,American Red Cross,39.0499257,-77.103659,USA,United States,American Red Cross,,,29-Aug-23,Yes,Yes
Red Cross Service Center at Fort Riley,Red Cross Service Center at Fort Riley,Administrative,1,,Ward,3,,"510 Reed Ave  Grimes Hall, 2nd Floor","510 Reed Ave  Grimes Hall, 2nd Floor","Fort Riley, KS 68113","Fort Riley, KS 68113",,,785-239-1887,,,American Red Cross,American Red Cross,39.0722626,-96.7811685,USA,United States,American Red Cross,,,29-Aug-23,Yes,Yes
Western Colorado,Western Colorado,Administrative,1,,Ward,3,,506 Gunnison Ave.  ,506 Gunnison Ave.  ,"Grand Junction, CO 81501","Grand Junction, CO 81501",,,1-970-242-4851,,,American Red Cross,American Red Cross,39.0736474,-108.5641736,USA,United States,American Red Cross,,,29-Aug-23,Yes,Yes
Fort Meade - Kimbrough Ambulatory Care Center,Fort Meade - Kimbrough Ambulatory Care Center,Administrative,1,,Ward,3,,2480 Llewellyn Dr. ,2480 Llewellyn Dr. ,"Ft. Meade, MD 20755","Ft. Meade, MD 20755",,,,,,American Red Cross,American Red Cross,39.0984123,-76.7286149,USA,United States,American Red Cross,,,29-Aug-23,Yes,Yes
Effingham Red Cross Blood and Platelet Donation Center,Effingham Red Cross Blood and Platelet Donation Center,Health Care,2,Blood Centre,,,,603 Eden Ave ,603 Eden Ave ,"Effingham, IL 62401","Effingham, IL 62401",,,1-800-RED CROSS,,,American Red Cross,American Red Cross,39.1290078,-88.5503764,USA,United States,American Red Cross,,,29-Aug-23,Yes,Yes
Greater Cincinnati Tri-State Chapter,Greater Cincinnati Tri-State Chapter,Administrative,1,Chapter,District,2,,2111 Dana Ave. ,2111 Dana Ave. ,"Cincinnati, OH 45207","Cincinnati, OH 45207",,,513-579-3000,,,American Red Cross,American Red Cross,39.1435074,-84.4621403,USA,United States,American Red Cross,,,29-Aug-23,Yes,Yes
Northern California Chapter,Northern California Chapter,Administrative,1,Chapter,District,2,,2125 East Onstott Road ,2125 East Onstott Road ,"Yuba City, CA 95991","Yuba City, CA 95991",,,530-673-1460,,,American Red Cross,American Red Cross,39.1619804,-121.6341034,USA,United States,American Red Cross,,,29-Aug-23,Yes,Yes
 Southern Maryland Chapter, Southern Maryland Chapter,Administrative,1,Chapter,District,2,,7480 Baltimore Annapolis Blvd. ,7480 Baltimore Annapolis Blvd. ," Glen Burnie, MD 21061"," Glen Burnie, MD 21061",,,410-624-2000,,,American Red Cross,American Red Cross,39.1634331,-76.6241821,USA,United States,American Red Cross,,,29-Aug-23,Yes,Yes
Southeast Chapter,Southeast Chapter,Administrative,1,Chapter,District,2,,1600 W. 3rd St. ,1600 W. 3rd St. ,"Bloomington, IN 47404","Bloomington, IN 47404",,,(812) 332-7292,,,American Red Cross,American Red Cross,39.1651188,-86.552946,USA,United States,American Red Cross,,,29-Aug-23,Yes,Yes
Glen Burnie Red Cross Blood and Platelet Donation Center,Glen Burnie Red Cross Blood and Platelet Donation Center,Health Care,2,Blood Centre,,,,"7310 Ritchie Highway, Ste 114 ","7310 Ritchie Highway, Ste 114 ","Glen Burnie, MD 21061","Glen Burnie, MD 21061",,,1-800-RED CROSS,,,American Red Cross,American Red Cross,39.1716363,-76.6204676,USA,United States,American Red Cross,,,29-Aug-23,Yes,Yes
"Greater Shenandoah Valley - Winchester, VA","Greater Shenandoah Valley - Winchester, VA",Administrative,1,,Ward,3,,561 Fortress Drive ,561 Fortress Drive ,"Winchester, VA 22601","Winchester, VA 22601",,,1-844-216-8286,,,American Red Cross,American Red Cross,39.2050318,-78.1657412,USA,United States,American Red Cross,,,29-Aug-23,Yes,Yes
Winchester Red Cross Blood Donation Center,Winchester Red Cross Blood Donation Center,Health Care,2,Blood Centre,,,,561 Fortress Dr ,561 Fortress Dr ,"Winchester, VA 22601","Winchester, VA 22601",,,1-800-RED CROSS,,,American Red Cross,American Red Cross,39.2050318,-78.1657412,USA,United States,American Red Cross,,,29-Aug-23,Yes,Yes
"Columbia Red Cross Blood, Platelet and Plasma Donation Center - MD","Columbia Red Cross Blood, Platelet and Plasma Donation Center - MD",Health Care,2,Blood Centre,,,,"10400 Little Patuxent Parkway, Ste 400 ","10400 Little Patuxent Parkway, Ste 400 ","Columbia, MD 21044","Columbia, MD 21044",,,1-800-RED CROSS,,,American Red Cross,American Red Cross,39.2124552,-76.8583966,USA,United States,American Red Cross,,,29-Aug-23,Yes,Yes
Ohio River Valley - Parkersburg,Ohio River Valley - Parkersburg,Administrative,1,,Ward,3,,220 8th Street ,220 8th Street ,"Parkersburg, WV 26101","Parkersburg, WV 26101",,,1-844-216-8286,,,American Red Cross,American Red Cross,39.2677872,-81.5578859,USA,United States,American Red Cross,,,29-Aug-23,Yes,Yes
Parkersburg Red Cross Blood Donation Center,Parkersburg Red Cross Blood Donation Center,Health Care,2,Blood Centre,,,,3210 Dudley Ave ,3210 Dudley Ave ,"Parkersburg, WV 26101","Parkersburg, WV 26101",,,1-800-RED CROSS,,,American Red Cross,American Red Cross,39.2853495,-81.5346581,USA,United States,American Red Cross,,,29-Aug-23,Yes,Yes
South Central Ohio Chapter,South Central Ohio Chapter,Administrative,1,Chapter,District,2,,181 N. Bridge Street ,181 N. Bridge Street ,"Chillicothe, OH 45601","Chillicothe, OH 45601",,,740-772-2014,,,American Red Cross,American Red Cross,39.338563,-82.9747274,USA,United States,American Red Cross,,,29-Aug-23,Yes,Yes
 Central Maryland Chapter, Central Maryland Chapter,Administrative,1,Chapter,District,2,,4700 Mount Hope Drive ,4700 Mount Hope Drive ,"Baltimore, MD 21215 ","Baltimore, MD 21215 ",,,410-624-2000 ,,,American Red Cross,American Red Cross,39.347569,-76.70745,USA,United States,American Red Cross,,,29-Aug-23,Yes,Yes
Baltimore Red Cross Blood and Platelet Donation Center - Mt. Hope,Baltimore Red Cross Blood and Platelet Donation Center - Mt. Hope,Health Care,2,Blood Centre,,,,4700 Mt Hope Drive ,4700 Mt Hope Drive ,"Baltimore, MD 21215","Baltimore, MD 21215",,,1-800-RED CROSS,,,American Red Cross,American Red Cross,39.347569,-76.70745,USA,United States,American Red Cross,,,29-Aug-23,Yes,Yes
Baltimore Red Cross Blood and Platelet Donation Center - White Marsh,Baltimore Red Cross Blood and Platelet Donation Center - White Marsh,Health Care,2,Blood Centre,,,,"8114 Sandpiper Circle, Ste 118 ","8114 Sandpiper Circle, Ste 118 ","Baltimore, MD 21236","Baltimore, MD 21236",,,1-800-RED CROSS,,,American Red Cross,American Red Cross,39.3713788,-76.4728781,USA,United States,American Red Cross,,,29-Aug-23,Yes,Yes
Frederick Red Cross Blood and Platelet Donation Center,Frederick Red Cross Blood and Platelet Donation Center,Health Care,2,Blood Centre,,,,"141 Thomas Johnson Drive, Ste 120 ","141 Thomas Johnson Drive, Ste 120 ","Frederick, MD 21702","Frederick, MD 21702",,,1-800-RED CROSS,,,American Red Cross,American Red Cross,39.4438841,-77.4080791,USA,United States,American Red Cross,,,29-Aug-23,Yes,Yes
Timonium Red Cross Blood Donation Center,Timonium Red Cross Blood Donation Center,Health Care,2,Blood Centre,,,,"2405 York Road, Ste 300 ","2405 York Road, Ste 300 ","Lutherville, MD 21093","Lutherville, MD 21093",,,1-800-RED CROSS,,,American Red Cross,American Red Cross,39.4538133,-76.6314789,USA,United States,American Red Cross,,,29-Aug-23,Yes,Yes
American Red Cross of Northern Nevada,American Red Cross of Northern Nevada,Administrative,1,,Ward,3,,4750 Longley Lane  Suite 101,4750 Longley Lane  Suite 101,"Reno, NV 89502","Reno, NV 89502",,,1-775-856-1000,,,American Red Cross,American Red Cross,39.4857884,-119.7602475,USA,United States,American Red Cross,,,29-Aug-23,Yes,Yes
"Greater Shenandoah Valley - Hagerstown, MD","Greater Shenandoah Valley - Hagerstown, MD",Administrative,1,,Ward,3,,1131 Conrad Court ,1131 Conrad Court ,"Hagerstown, MD 21740","Hagerstown, MD 21740",,,1-844-216-8286,,,American Red Cross,American Red Cross,39.6329809,-77.6962889,USA,United States,American Red Cross,,,29-Aug-23,Yes,Yes
Allegheny Highlands,Allegheny Highlands,Administrative,1,,Ward,3,,"1299 Pineview Drive, Suite 300 ","1299 Pineview Drive, Suite 300 ","Morgantown, WV 26505","Morgantown, WV 26505",,,1-844-216-8286,,,American Red Cross,American Red Cross,39.6616882,-79.9538076,USA,United States,American Red Cross,,,29-Aug-23,Yes,Yes
Mile High Area,Mile High Area,Administrative,1,,Ward,3,,444 Sherman St. ,444 Sherman St. ,"Denver, CO 80203","Denver, CO 80203",,,1-303-722-7474,,,American Red Cross,American Red Cross,39.723479,-104.984633,USA,United States,American Red Cross,,,29-Aug-23,Yes,Yes
 Delmarva Chapter, Delmarva Chapter,Administrative,1,Chapter,District,2,,"100 West 10th Street, Suite 401 ","100 West 10th Street, Suite 401 ","Wilmington, DE 19801","Wilmington, DE 19801",,,302-656-6620,,,American Red Cross,American Red Cross,39.7459326,-75.5489901,USA,United States,American Red Cross,,,29-Aug-23,Yes,Yes
Miami Valley Chapter,Miami Valley Chapter,Administrative,1,Chapter,District,2,,370 West 1st Street ,370 West 1st Street ,"Dayton, OH 45402","Dayton, OH 45402",,,937-222-6711,,,American Red Cross,American Red Cross,39.7609114,-84.1993452,USA,United States,American Red Cross,,,29-Aug-23,Yes,Yes
Greater Kansas City and Northwest Missouri - St. Joseph,Greater Kansas City and Northwest Missouri - St. Joseph,Administrative,1,,Ward,3,,401 N 12th St. ,401 N 12th St. ,"St. Joseph, MO 64501","St. Joseph, MO 64501",,,816-232-8439,,,American Red Cross,American Red Cross,39.7692123,-94.8451659,USA,United States,American Red Cross,,,29-Aug-23,Yes,Yes
Greater Indianapolis (Regional Headquarters),Greater Indianapolis (Regional Headquarters),Administrative,1,Regional Headquarters,Provincial,1,,1510 N. Meridian St. ,1510 N. Meridian St. ,"Indianapolis, IN 46202","Indianapolis, IN 46202",,,(888) 684-1441,,,American Red Cross,American Red Cross,39.7870813,-86.1581516,USA,United States,American Red Cross,,,29-Aug-23,Yes,Yes
South Central Illinois Chapter,South Central Illinois Chapter,Administrative,1,Chapter,District,2,,769 South Durkin Drive ,769 South Durkin Drive ,"Springfield, IL 62704","Springfield, IL 62704",,,(217) 787-7602,,,American Red Cross,American Red Cross,39.7933155,-89.7058613,USA,United States,American Red Cross,,,29-Aug-23,Yes,Yes
Wilmington Delaware Red Cross Blood and Platelet Donation Center ,Wilmington Delaware Red Cross Blood and Platelet Donation Center ,Health Care,2,Blood Centre,,,,5329 Concord Pike ,5329 Concord Pike ,"Wilmington, DE 19803","Wilmington, DE 19803",,,1-800-RED CROSS,,,American Red Cross,American Red Cross,39.8311236,-75.5430228,USA,United States,American Red Cross,,,29-Aug-23,Yes,Yes
Southern New Jersey,Southern New Jersey,Administrative,1,,Ward,3,,5425 Rt. 70 West ,5425 Rt. 70 West ,"Pennsauken, NJ 08109","Pennsauken, NJ 08109",,,856-365-7100,,,American Red Cross,American Red Cross,39.9319284,-75.063168,USA,United States,American Red Cross,,,29-Aug-23,Yes,Yes
"Pennsauken Blood, Platelet and Plasma Donation Center","Pennsauken Blood, Platelet and Plasma Donation Center",Health Care,2,Blood Centre,,,,5425 West Route 70 ,5425 West Route 70 ,"Pennsauken Township, NJ 08109","Pennsauken Township, NJ 08109",,,1-800-RED CROSS,,,American Red Cross,American Red Cross,39.9319284,-75.063168,USA,United States,American Red Cross,,,29-Aug-23,Yes,Yes
Southeastern Pennsylvania Regional HQ and Philadelphia Chapter,Southeastern Pennsylvania Regional HQ and Philadelphia Chapter,Administrative,1,Chapter,District,2,,2221 Chestnut Street   ,2221 Chestnut Street   ,"Philadelphia, PA 19103","Philadelphia, PA 19103",,,215-299-4000,,,American Red Cross,American Red Cross,39.9528481,-75.1777941,USA,United States,American Red Cross,,,29-Aug-23,Yes,Yes
Delaware Valley Chapter,Delaware Valley Chapter,Administrative,1,Chapter,District,2,,601 Westtown Road Suite 385,601 Westtown Road Suite 385,"West Chester, PA 19382","West Chester, PA 19382",,,610-750-8206,,,American Red Cross,American Red Cross,39.9587105,-75.5819777,USA,United States,American Red Cross,,,29-Aug-23,Yes,Yes
Red Cross House ,Red Cross House ,Administrative,1,,Ward,3,,4000 Powelton Avenue ,4000 Powelton Avenue ,"Philadelphia, PA 19104","Philadelphia, PA 19104",,,215-405-8800,,,American Red Cross,American Red Cross,39.9589793,-75.2022776,USA,United States,American Red Cross,,,29-Aug-23,Yes,Yes
"Philadelphia Red Cross Blood, Platelet and Plasma Donation Center","Philadelphia Red Cross Blood, Platelet and Plasma Donation Center",Health Care,2,Blood Centre,,,,700 Spring Garden Street ,700 Spring Garden Street ,"Philadelphia, PA 19123","Philadelphia, PA 19123",,,1-800-RED CROSS,,,American Red Cross,American Red Cross,39.9597212,-75.1517093,USA,United States,American Red Cross,,,29-Aug-23,Yes,Yes
"West Chester Red Cross Blood, Platelet and Plasma Donation Center","West Chester Red Cross Blood, Platelet and Plasma Donation Center",Health Care,2,Blood Centre,,,,523 East Gay Street ,523 East Gay Street ,"West Chester, PA 19380","West Chester, PA 19380",,,1-800-RED CROSS,,,American Red Cross,American Red Cross,39.9643051,-75.5976205,USA,United States,American Red Cross,,,29-Aug-23,Yes,Yes
Greater Columbus Chapter,Greater Columbus Chapter,Administrative,1,Chapter,District,2,,995 E. Broad Street ,995 E. Broad Street ,"Columbus, OH 43205","Columbus, OH 43205",,,614-253-2740,,,American Red Cross,American Red Cross,39.964773,-82.9739753,USA,United States,American Red Cross,,,29-Aug-23,Yes,Yes
Quincy Red Cross Blood and Platelet Donation Center,Quincy Red Cross Blood and Platelet Donation Center,Health Care,2,Blood Centre,,,,3000 N 23rd Street ,3000 N 23rd Street ,"Quincy, IL 62305","Quincy, IL 62305",,,1-800-RED CROSS,,,American Red Cross,American Red Cross,39.967865,-91.3777497,USA,United States,American Red Cross,,,29-Aug-23,Yes,Yes
Columbus Red Cross Blood and Platelet Donation Center - OH,Columbus Red Cross Blood and Platelet Donation Center - OH,Health Care,2,Blood Centre,,,,4327 Equity Drive ,4327 Equity Drive ,"Columbus, OH 43228","Columbus, OH 43228",,,1-800-RED CROSS,,,American Red Cross,American Red Cross,39.9865407,-83.1198282,USA,United States,American Red Cross,,,29-Aug-23,Yes,Yes
East Central Ohio Chapter,East Central Ohio Chapter,Administrative,1,Chapter,District,2,,143 S. 30th Street ,143 S. 30th Street ,"Newark, OH 43058","Newark, OH 43058",,,740-349-9442,,,American Red Cross,American Red Cross,40.0450038,-82.4422901,USA,United States,American Red Cross,,,29-Aug-23,Yes,Yes
Licking Red Cross Blood Donation Center ,Licking Red Cross Blood Donation Center ,Health Care,2,Blood Centre,,,,1272 West Main Street ,1272 West Main Street ,"Newark, OH 43055","Newark, OH 43055",,,1-800-RED CROSS,,,American Red Cross,American Red Cross,40.0480003,-82.4488292,USA,United States,American Red Cross,,,29-Aug-23,Yes,Yes
Ohio River Valley - Wheeling,Ohio River Valley - Wheeling,Administrative,1,,Ward,3,,193 29th Street ,193 29th Street ,"Wheeling, WV 26003","Wheeling, WV 26003",,,1-844-216-8286,,,American Red Cross,American Red Cross,40.0510472,-80.7167856,USA,United States,American Red Cross,,,29-Aug-23,Yes,Yes
Gahanna Red Cross Blood and Platelet Donation Center - Stone Ridge,Gahanna Red Cross Blood and Platelet Donation Center - Stone Ridge,Health Care,2,Blood Centre,,,,337 Stone Ridge Lane ,337 Stone Ridge Lane ,"Gahanna, OH 43230","Gahanna, OH 43230",,,1-800-RED CROSS,,,American Red Cross,American Red Cross,40.0512621,-82.8668806,USA,United States,American Red Cross,,,29-Aug-23,Yes,Yes
Carriage Place Blood Donation Center,Carriage Place Blood Donation Center,Health Care,2,Blood Centre,,,,4820 Sawmill Road ,4820 Sawmill Road ,"Columbus, OH 43235","Columbus, OH 43235",,,1-800-RED CROSS,,,American Red Cross,American Red Cross,40.0672454,-83.0916068,USA,United States,American Red Cross,,,29-Aug-23,Yes,Yes
"Philadelphia Red Cross Blood, Platelet and Plasma Donation Center - Northeast","Philadelphia Red Cross Blood, Platelet and Plasma Donation Center - Northeast",Health Care,2,Blood Centre,,,,1401 Rhawn Street ,1401 Rhawn Street ,"Philadelphia, PA 19111","Philadelphia, PA 19111",,,1-800-RED CROSS,,,American Red Cross,American Red Cross,40.0684123,-75.0658614,USA,United States,American Red Cross,,,29-Aug-23,Yes,Yes
Lewis Center Red Cross Blood and Platelet Donation Center,Lewis Center Red Cross Blood and Platelet Donation Center,Health Care,2,Blood Centre,,,,1327 Cameron Avenue ,1327 Cameron Avenue ,"Lewis Center, OH 43035","Lewis Center, OH 43035",,,1-800-RED CROSS,,,American Red Cross,American Red Cross,40.1533386,-82.9995628,USA,United States,American Red Cross,,,29-Aug-23,Yes,Yes
"Horsham Red Cross Blood, Platelet and Plasma Donation Center","Horsham Red Cross Blood, Platelet and Plasma Donation Center",Health Care,2,Blood Centre,,,,116G Welsh Road ,116G Welsh Road ,"Horsham, PA 19044","Horsham, PA 19044",,,1-800-RED CROSS,,,American Red Cross,American Red Cross,40.1596474,-75.1455187,USA,United States,American Red Cross,,,29-Aug-23,Yes,Yes
Central Pennsylvania Chapter,Central Pennsylvania Chapter,Administrative,1,Chapter,District,2,,1804 North 6th Street  ,1804 North 6th Street  ,"Harrisburg, PA 17102","Harrisburg, PA 17102",,,866-311-3832,,,American Red Cross,American Red Cross,40.2773467,-76.8893457,USA,United States,American Red Cross,,,29-Aug-23,Yes,Yes
Pennsylvania Mountains Chapter,Pennsylvania Mountains Chapter,Administrative,1,Chapter,District,2,,250 Jari Drive ,250 Jari Drive ,"Johnstown, PA 15904","Johnstown, PA 15904",,,814-262-3170,,,American Red Cross,American Red Cross,40.2825415,-78.8288873,USA,United States,American Red Cross,,,29-Aug-23,Yes,Yes
Johnstown Red Cross Blood and Platelet Donation Center,Johnstown Red Cross Blood and Platelet Donation Center,Health Care,2,Blood Centre,,,,250 Jari Drive ,250 Jari Drive ,"Johnstown, PA 15904","Johnstown, PA 15904",,,1-800-RED CROSS,,,American Red Cross,American Red Cross,40.2825415,-78.8288873,USA,United States,American Red Cross,,,29-Aug-23,Yes,Yes
Chestnut Ridge Chapter,Chestnut Ridge Chapter,Administrative,1,Chapter,District,2,,"225 Humphrey Road,  Suite 6, Building 1","225 Humphrey Road,  Suite 6, Building 1","Greensburg, PA 15601","Greensburg, PA 15601",,,724-834-6510 ,,,American Red Cross,American Red Cross,40.2996857,-79.5225941,USA,United States,American Red Cross,,,29-Aug-23,Yes,Yes
Central New Jersey,Central New Jersey,Administrative,1,,Ward,3,,"707 Alexander Road, Suite 101 ","707 Alexander Road, Suite 101 ","Princeton, NJ 08540","Princeton, NJ 08540",,,609-951-8550,,,American Red Cross,American Red Cross,40.3228882,-74.6376403,USA,United States,American Red Cross,,,29-Aug-23,Yes,Yes
"Central New Jersey Red Cross Blood, Platelet and Plasma Donation Center","Central New Jersey Red Cross Blood, Platelet and Plasma Donation Center",Health Care,2,Blood Centre,,,,"707 Alexander Road, suite #101 ","707 Alexander Road, suite #101 ","Princeton, NJ 08540","Princeton, NJ 08540",,,1-800-RED CROSS,,,American Red Cross,American Red Cross,40.3228882,-74.6376403,USA,United States,American Red Cross,,,29-Aug-23,Yes,Yes
Delaware Red Cross Blood and Platelet Donation Center  OH,Delaware Red Cross Blood and Platelet Donation Center  OH,Health Care,2,Blood Centre,,,,380 Hills-Miller Road ,380 Hills-Miller Road ,"Delaware, OH 43015","Delaware, OH 43015",,,1-800-RED CROSS,,,American Red Cross,American Red Cross,40.3331402,-83.0801348,USA,United States,American Red Cross,,,29-Aug-23,Yes,Yes
"Lehi Red Cross Blood, Platelet and Plasma Donation Center","Lehi Red Cross Blood, Platelet and Plasma Donation Center",Health Care,2,Blood Centre,,,,"310 North 850 East, Suite B ","310 North 850 East, Suite B ","Lehi, UT 84043","Lehi, UT 84043",,,1-800-RED CROSS,,,American Red Cross,American Red Cross,40.391571,-111.8361368,USA,United States,American Red Cross,,,29-Aug-23,Yes,Yes
Northern Colorado,Northern Colorado,Administrative,1,,Ward,3,,"1808 N. Boise Ave, Suite 110 ","1808 N. Boise Ave, Suite 110 ","Loveland, CO 80538","Loveland, CO 80538",,,1-970-226-5728,,,American Red Cross,American Red Cross,40.4113205,-105.0533454,USA,United States,American Red Cross,,,29-Aug-23,Yes,Yes
Central Chapter,Central Chapter,Administrative,1,Chapter,District,2,,2750 N 9th St.  Ste. G,2750 N 9th St.  Ste. G,"Lafayette, IN 47904","Lafayette, IN 47904",,,(765) 742-6975,,,American Red Cross,American Red Cross,40.4553392,-86.8771995,USA,United States,American Red Cross,,,29-Aug-23,Yes,Yes
Regional Headquarters,Regional Headquarters,Administrative,1,Regional Headquarters,Provincial,1,,2801 Liberty Avenue ,2801 Liberty Avenue ,"Pittsburgh, PA 15222","Pittsburgh, PA 15222",,,412-263-3100,,,American Red Cross,American Red Cross,40.4568043,-79.9746531,USA,United States,American Red Cross,,,29-Aug-23,Yes,Yes
"Altoona Red Cross Blood, Platelet and Plasma Donation Center","Altoona Red Cross Blood, Platelet and Plasma Donation Center",Health Care,2,Blood Centre,,,,415 Orchard Ave  ,415 Orchard Ave  ,"Altoona, PA 16601","Altoona, PA 16601",,,1-800-RED CROSS,,,American Red Cross,American Red Cross,40.4677571,-78.4041741,USA,United States,American Red Cross,,,29-Aug-23,Yes,Yes
